     2.11           OBSERVATION DATA    M (MIXED)           RINEX VERSION / TYPE
teqc  2019Feb25     NOAA/NOS/NGS/CORS   20191007 01:06:53UTCPGM / RUN BY / DATE
Linux 2.4.21-27.ELsmp|Opteron|gcc|Linux 64|=+               COMMENT
+30.311691164 (latitude)                                    COMMENT
-097.75630896 (longitude)                                   COMMENT
+193.873      (elevation)                                   COMMENT
+.000000      (antenna height)                              COMMENT
BIT 2 OF LLI FLAGS DATA COLLECTED UNDER A/S CONDITION       COMMENT
TXAU                                                        MARKER NAME
3                                                           MARKER NUMBER
Darrell Thames      TXDOT                                   OBSERVER / AGENCY
5827R40066          TRIMBLE ALLOY       5.37                REC # / TYPE / VERS
30518869            TRM55971.00     NONE                    ANT # / TYPE
  -743773.7240 -5460645.9210  3200347.8320                  APPROX POSITION XYZ
        0.0000        0.0000        0.0000                  ANTENNA: DELTA H/E/N
     1     1                                                WAVELENGTH FACT L1/2
    11    L1    L2    L5    C1    P1    C2    P2    C5    S1# / TYPES OF OBSERV
          S2    S5                                          # / TYPES OF OBSERV
     5.0000                                                 INTERVAL
    18                                                      LEAP SECONDS
 SNR is mapped to RINEX snr flag value [0-9]                COMMENT
  L1 & L2: min(max(int(snr_dBHz/6), 0), 9)                  COMMENT
teqc.e windowed: start @ 2019 Oct  7 00:00:00.000           COMMENT
teqc.e windowed: delta = 3600.000 sec                       COMMENT
teqc.e edited: all SBAS satellites excluded                 COMMENT
teqc.e edited: all QZSS satellites excluded                 COMMENT
  2019    10     7     0     0    0.0000000     GPS         TIME OF FIRST OBS
                                                            END OF HEADER
 19 10  7  0  0  0.0000000  0 19G01G03G10G11G14G16G18G22G25G26G31G32
                                R05R06R07R09R15R16R22
 119116328.523 7  92817918.044 7  88950504.638 8  22667080.594
  22667086.570    22667087.750    22667083.668          47.700          44.300
        49.200
 127613610.448 6  99439198.041 7  95295898.047 7  24284066.148
  24284072.328    24284072.289    24284070.320          40.700          42.400
        45.000
 119197275.908 7  92880992.672 7  89010953.195 8  22682482.047
  22682488.625    22682488.586    22682484.270          45.900          45.500
        48.400
 127375686.500 6  99253803.34343                  24238792.008
                  24238795.410                          41.200          19.900

 111999964.557 8  87272739.41946                  21312875.023
                  21312877.484                          48.100          38.800

 131858020.814 6 102746517.57442                  25091743.789
                  25091748.289                          36.900          16.900

 116890792.052 7  91083768.43045                  22243578.188
                  22243582.941                          46.200          33.000

 120228074.153 7  93684269.58045                  22878648.078
                  22878649.430                          47.200          34.600

 121442310.744 7  94630376.503 7  90687449.142 7  23109693.242
  23109699.586    23109699.289    23109697.426          43.800          42.300
        47.000
 120099332.944 7  93583925.026 7  89684596.492 7  22854139.891
  22854146.570    22854147.059    22854143.391          44.500          43.800
        46.300
 105372804.522 8  82108696.655 8                  20051762.172
  20051765.270    20051765.027                          51.900          51.200

 114991114.182 8  89603475.877 7  85870000.019 8  21882072.023
  21882077.570    21882076.680    21882074.223          48.100          46.200
        49.500
 121395498.688 7  94418732.696 6                  22709532.594    22709531.367
  22709535.660    22709535.453                          44.700          41.600

 106246183.669 7                                  19910483.836    19910482.715
                                                        44.900

 115960558.423 7  90191553.730 7                  21662400.250    21662399.363
  21662403.754    21662403.504                          47.600          46.100

 108067624.021 8  84052610.608 8                  20237584.227    20237582.902
  20237584.773    20237585.211                          48.800          49.200

 128745838.434 6 100135666.636 6                  24093018.250    24093018.773
  24093022.586    24093021.914                          40.000          37.800

 106495876.029 7  82830141.362 7                  19936240.664    19936239.617
  19936240.023    19936241.336                          45.900          44.800

 125530999.393 7  97635220.795 6                  23516186.281    23516185.023
  23516189.219    23516190.176                          43.000          40.900

 19 10  7  0  0  5.0000000  0 19G01G03G10G11G14G16G18G22G25G26G31G32
                                R05R06R07R09R15R16R22
 119116662.122 7  92818177.997 7  88950753.752 8  22667143.461
  22667150.488    22667151.180    22667147.023          47.300          44.900
        49.300
 127596878.911 6  99426160.487 7  95283403.723 7  24280882.047
  24280888.879    24280888.730    24280886.445          40.600          42.500
        45.600
 119211684.405 7  92892220.085 7  89021712.782 8  22685223.523
  22685229.891    22685230.402    22685226.039          45.100          46.300
        48.500
 127383067.141 6  99259554.49743                  24240196.508
                  24240199.348                          40.400          19.000

 112002099.286 7  87274402.84346                  21313280.977
                  21313283.496                          47.800          38.600

 131840235.140 6 102732658.60042                  25088358.711
                  25088363.734                          36.500          15.600

 116899213.780 7  91090330.80645                  22245180.875
                  22245185.492                          46.300          32.500

 120214295.193 7  93673532.73245                  22876026.445
                  22876027.496                          47.000          34.600

 121447834.533 7  94634680.766 7  90691574.057 7  23110744.484
  23110750.520    23110750.445    23110748.633          44.200          42.000
        46.700
 120083535.471 7  93571615.318 7  89672799.706 7  22851133.617
  22851140.445    22851140.664    22851137.160          44.500          43.700
        47.100
 105376090.023 8  82111256.791 8                  20052387.766
  20052390.680    20052390.164                          51.900          51.200

 114997763.601 8  89608657.245 7  85874965.487 8  21883337.055
  21883342.242    21883342.063    21883339.477          48.000          45.600
        50.500
 121406703.925 7  94427447.891 6                  22711627.992    22711627.465
  22711632.445    22711631.855                          44.300          41.700

 106244041.578 7                                  19910083.008    19910081.371
                                                        44.600

 115947278.870 7  90181225.189 7                  21659919.477    21659918.641
  21659923.203    21659922.844                          47.600          46.600

 108052942.163 8  84041191.400 8                  20234833.867    20234833.715
  20234835.953    20234835.824                          49.100          49.300

 128766616.794 6 100151827.626 6                  24096906.813    24096906.762
  24096909.270    24096909.852                          38.800          37.200

 106505312.306 7  82837480.688 7                  19938006.727    19938006.117
  19938006.988    19938007.813                          45.900          45.100

 125540093.538 7  97642294.006 6                  23517889.758    23517888.840
  23517892.965    23517893.602                          42.600          40.700

 19 10  7  0  0 10.0000000  0 19G01G03G10G11G14G16G18G22G25G26G31G32
                                R05R06R07R09R15R16R22
 119117011.452 7  92818450.179 7  88951014.600 8  22667210.453
  22667216.703    22667217.563    22667213.414          47.600          45.000
        48.800
 127580148.674 6  99413123.974 7  95270910.407 7  24277698.844
  24277704.875    24277704.906    24277702.688          39.600          42.700
        44.700
 119226101.759 7  92903454.369 7  89032478.988 8  22687967.461
  22687973.484    22687973.703    22687969.602          45.400          46.300
        48.700
 127390457.021 6  99265312.83143                  24241602.656
                  24241605.410                          40.700          20.100

 112004236.727 7  87276068.37746                  21313687.109
                  21313690.418                          46.500          38.900

 131822445.075 6 102718796.26342                  25084973.508
                  25084978.711                          36.000          17.400

 116907648.322 7  91096903.17545                  22246786.305
                  22246790.211                          46.100          32.900

 120200521.860 7  93662800.26745                  22873405.313
                  22873406.461                          46.900          34.300

 121453374.371 7  94638997.535 6  90695710.951 7  23111798.172
  23111805.262    23111804.523    23111802.766          44.100          41.700
        46.600
 120067742.331 7  93559308.998 7  89661006.134 7  22848128.086
  22848134.992    22848135.219    22848131.773          43.900          43.600
        46.300
 105379389.833 8  82113828.073 8                  20053015.648
  20053018.398    20053018.086                          51.600          51.500

 115004416.043 7  89613840.962 7  85879933.216 8  21884603.289
  21884608.617    21884608.082    21884605.336          47.200          45.700
        50.400
 121417917.249 7  94436169.353 6                  22713725.688    22713725.352
  22713729.398    22713729.625                          44.400          41.800

 106241908.728 7                                  19909683.914    19909681.574
                                                        44.800

 115933999.977 7  90170897.167 7                  21657439.016    21657438.223
  21657441.805    21657442.168                          47.800          46.300

 108038276.409 8  84029784.706 8                  20232088.109    20232087.336
  20232089.102    20232089.313                          48.600          49.100

 128787399.282 6 100167991.824 6                  24100795.961    24100796.410
  24100799.531    24100799.133                          38.600          37.200

 106514768.442 7  82844835.454 7                  19939775.914    19939776.285
  19939776.840    19939778.000                          45.300          44.500

 125549201.449 7  97649377.932 6                  23519596.984    23519594.348
  23519599.516    23519600.094                          42.200          41.300

 19 10  7  0  0 15.0000000  0 19G01G03G10G11G14G16G18G22G25G26G31G32
                                R05R06R07R09R15R16R22
 119117376.059 7  92818734.289 7  88951286.869 8  22667279.773
  22667286.426    22667287.219    22667282.852          47.200          44.000
        48.600
 127563419.343 6  99400088.138 7  95258417.738 7  24274514.977
  24274521.840    24274521.730    24274519.301          40.100          42.600
        44.700
 119240527.544 7  92914695.242 7  89043251.473 8  22690712.492
  22690718.715    22690718.926    22690714.797          45.500          45.700
        48.300
 127397855.776 6  99271078.11243                  24243010.047
                  24243013.270                          41.100          20.600

 112006376.463 7  87277735.70346                  21314094.969
                  21314097.656                          47.600          38.400

 131804650.181 6 102704930.11642                  25081587.117
                  25081592.207                          36.300          16.300

 116916095.196 7  91103485.15745                  22248392.984
                  22248397.664                          46.600          31.800

 120186753.794 7  93652071.90745                  22870785.016
                  22870786.527                          47.200          34.900

 121458929.847 7  94643326.459 6  90699859.494 7  23112855.570
  23112862.047    23112861.754    23112859.891          43.600          41.700
        47.000
 120051953.105 7  93547005.715 7  89649215.502 7  22845123.430
  22845130.379    22845130.531    22845127.086          44.100          43.900
        46.400
 105382703.506 8  82116410.164 8                  20053646.250
  20053648.805    20053648.547                          51.100          51.000

 115011071.132 7  89619026.739 7  85884902.922 8  21885869.906
  21885874.797    21885874.422    21885871.770          47.500          45.500
        49.900
 121429138.228 7  94444896.783 7                  22715825.742    22715824.484
  22715828.137    22715828.883                          44.500          42.200

 106239784.599 7                                  19909285.016    19909283.699
                                                        44.800

 115920721.367 7  90160569.369 7                  21654957.828    21654957.535
  21654962.305    21654961.477                          47.300          46.100

 108023626.243 8  84018390.144 8                  20229344.094    20229343.727
  20229345.512    20229345.855                          48.100          48.800

 128808185.421 6 100184158.819 6                  24104686.156    24104685.414
  24104688.203    24104689.164                          38.700          37.000

 106524243.906 7  82852205.253 7                  19941550.719    19941549.910
  19941550.859    19941551.969                          45.300          44.700

 125558322.707 7  97656472.231 6                  23521305.492    23521303.965
  23521308.121    23521308.719                          42.100          41.200

 19 10  7  0  0 20.0000000  0 19G01G03G10G11G14G16G18G22G25G26G31G32
                                R05R06R07R09R15R16R22
 119117756.276 7  92819030.560 7  88951570.783 8  22667351.867
  22667358.859    22667359.500    22667355.141          46.800          44.700
        49.000
 127546691.301 6  99387053.327 7  95245926.005 7  24271331.766
  24271338.465    24271338.602    24271336.359          40.800          42.600
        45.100
 119254962.047 7  92925942.908 7  89054030.494 8  22693459.617
  22693465.492    22693465.754    22693461.531          46.400          46.000
        48.800
 127405263.716 6  99276850.51943                  24244420.070
                  24244423.109                          41.400          20.900

 112008518.797 7  87279405.05946                  21314502.141
                  21314505.250                          47.800          38.300

 131786850.890 6 102691060.60842                  25078200.273
                  25078205.047                          37.000          16.300

 116924554.846 7  91110077.08345                  22250002.836
                  22250007.430                          45.800          30.900

 120172991.297 7  93641347.88345                  22868166.195
                  22868167.129                          46.900          35.100

 121464501.232 7  94647667.815 7  90704019.963 7  23113915.352
  23113922.254    23113921.898    23113920.020          43.000          42.300
        47.100
 120036168.183 7  93534705.772 7  89637428.067 7  22842120.125
  22842126.980    22842127.004    22842123.125          44.000          44.200
        46.700
 105386031.426 8  82119003.352 8                  20054279.680
  20054282.227    20054281.805                          51.600          50.900

 115017729.176 8  89624214.827 7  85889874.835 8  21887136.477
  21887141.887    21887141.465    21887138.703          48.400          46.100
        49.900
 121440367.231 7  94453630.422 7                  22717925.297    22717924.953
  22717928.281    22717929.527                          43.900          42.200

 106237669.533 7                                  19908888.703    19908887.102
                                                        45.000

 115907443.141 7  90150241.853 7                  21652477.672    21652476.813
  21652481.039    21652480.926                          47.500          46.000

 108008992.108 8  84007008.044 8                  20226603.898    20226603.152
  20226605.734    20226605.316                          48.800          49.600

 128828975.578 6 100200328.956 6                  24108575.602    24108575.906
  24108578.938    24108579.855                          38.100          39.100

 106533739.007 7  82859590.335 7                  19943327.500    19943327.531
  19943327.688    19943329.258                          45.800          44.500

 125567457.561 7  97663577.104 6                  23523015.820    23523014.867
  23523019.410    23523020.027                          42.300          41.100

 19 10  7  0  0 25.0000000  0 19G01G03G10G11G14G16G18G22G25G26G31G32
                                R05R06R07R09R15R16R22
 119118151.872 7  92819338.827 7  88951866.212 8  22667427.398
  22667433.711    22667434.820    22667430.512          47.200          44.400
        48.800
 127529964.319 6  99374019.314 6  95233435.076 7  24268148.844
  24268154.621    24268155.328    24268153.188          40.200          41.600
        45.400
 119269405.127 7  92937197.257 7  89064815.905 8  22696207.156
  22696213.957    22696214.348    22696210.027          45.400          46.000
        48.000
 127412680.640 6  99282629.96943                  24245831.461
                  24245834.449                          40.900          20.900

 112010663.590 8  87281076.31646                  21314910.625
                  21314913.410                          48.600          38.600

 131769046.969 6 102677187.44942                  25074812.813
                  25074816.871                          38.200          16.900

 116933026.959 7  91116678.72845                  22251615.805
                  22251619.594                          46.100          31.900

 120159234.196 7  93630628.07045                  22865548.352
                  22865549.359                          46.700          33.700

 121470088.378 7  94652021.438 6  90708192.189 7  23114979.023
  23114985.105    23114985.004    23114983.285          44.200          41.200
        47.500
 120020387.340 7  93522409.041 7  89625643.695 7  22839116.680
  22839123.738    22839123.723    22839120.234          43.800          44.100
        46.600
 105389373.352 8  82121607.448 8                  20054915.242
  20054918.047    20054917.922                          51.500          50.600

 115024389.991 7  89629405.067 7  85894848.812 8  21888404.273
  21888409.391    21888409.063    21888406.223          47.900          45.700
        49.600
 121451604.087 7  94462370.229 7                  22720027.750    22720026.820
  22720031.965    22720031.668                          44.100          42.500

 106235563.561 7                                  19908493.531    19908492.625
                                                        45.000

 115894165.477 7  90139914.787 7                  21649997.633    21649996.305
  21650001.484    21650000.719                          47.300          46.600

 107994373.800 8  83995638.265 8                  20223866.078    20223865.531
  20223867.762    20223867.691                          48.900          49.000

 128849769.534 6 100216502.028 6                  24112468.789    24112467.332
  24112470.758    24112471.344                          38.900          39.400

 106543253.564 7  82866990.563 7                  19945109.352    19945108.422
  19945109.289    19945110.574                          45.800          44.900

 125576605.937 7  97670692.508 6                  23524729.836    23524728.512
  23524732.672    23524733.668                          42.300          40.500

 19 10  7  0  0 30.0000000  0 19G01G03G10G11G14G16G18G22G25G26G31G32
                                R05R06R07R09R15R16R22
 119118563.119 7  92819659.266 7  88952173.310 8  22667505.461
  22667511.848    22667512.867    22667508.770          46.800          44.700
        49.200
 127513238.586 6  99360986.289 6  95220945.119 7  24264965.820
  24264972.207    24264971.773    24264970.336          40.200          40.200
        45.500
 119283856.951 7  92948458.402 7  89075607.855 8  22698957.727
  22698964.016    22698964.211    22698960.074          45.100          45.900
        48.400
 127420106.754 6  99288416.52943                  24247244.469
                  24247247.672                          39.200          20.400

 112012811.058 7  87282749.66746                  21315319.047
                  21315322.098                          47.800          38.800

 131751238.671 6 102663310.80742                  25071423.508
                  25071427.777                          37.300          17.800

 116941511.771 7  91123290.26745                  22253229.805
                  22253234.027                          45.000          31.900

 120145482.672 7  93619912.60145                  22862931.844
                  22862932.621                          47.200          34.000

 121475691.463 7  94656387.480 6  90712376.310 7  23116045.109
  23116051.789    23116051.293    23116049.551          43.900          41.200
        46.700
 120004610.839 7  93510115.646 7  89613862.538 7  22836114.344
  22836121.031    22836121.879    22836118.047          43.800          43.900
        46.900
 105392729.478 8  82124222.619 8                  20055554.125
  20055556.672    20055556.449                          52.400          51.000

 115031053.774 8  89634597.635 7  85899825.024 8  21889672.031
  21889677.582    21889677.082    21889674.309          48.000          45.800
        49.600
 121462848.997 7  94471116.267 6                  22722131.516    22722130.738
  22722134.781    22722135.484                          44.200          41.300

 106233466.753 7                                  19908101.438    19908099.707
                                                        44.500

 115880888.321 7  90129588.113 7                  21647516.750    21647516.266
  21647520.387    21647520.535                          47.500          46.900

 107979771.524 8  83984280.951 8                  20221131.383    20221131.238
  20221133.168    20221133.066                          49.300          49.500

 128870567.456 6 100232678.204 6                  24116359.797    24116358.570
  24116363.422    24116363.770                          38.900          39.800

 106552787.782 7  82874406.064 7                  19946893.859    19946893.527
  19946894.480    19946895.262                          45.500          45.000

 125585767.942 7  97677818.515 6                  23526446.922    23526444.777
  23526449.879    23526450.160                          42.100          40.800

 19 10  7  0  0 35.0000000  0 19G01G03G10G11G14G16G18G22G25G26G31G32
                                R05R06R07R09R15R16R22
 119118989.761 7  92819991.716 7  88952491.899 8  22667586.656
  22667593.195    22667594.148    22667590.078          47.000          44.600
        48.700
 127496513.968 6  99347954.117 7  95208455.967 7  24261782.891
  24261789.945    24261788.707    24261787.824          40.200          42.300
        45.500
 119298317.326 7  92959726.231 7  89086406.174 8  22701709.203
  22701716.133    22701716.066    22701711.586          45.500          45.700
        48.100
 127427541.837 6  99294210.09043                  24248658.969
                  24248662.473                          39.400          20.400

 112014960.923 8  87284424.89246                  21315728.297
                  21315731.219                          48.300          38.500

 131733425.798 6 102649430.62842                  25068033.125
                  25068037.836                          37.000          15.600

 116950009.027 7  91129911.50245                  22254846.516
                  22254850.934                          44.700          31.400

 120131736.529 7  93609201.32845                  22860315.922
                  22860316.785                          47.000          34.400

 121481310.310 7  94660765.805 6  90716572.210 7  23117114.688
  23117121.188    23117120.582    23117119.031          42.800          41.300
        46.200
 119988838.450 7  93497825.501 7  89602084.474 7  22833112.695
  22833120.227    22833120.320    22833116.910          43.400          44.600
        46.800
 105396099.589 8  82126848.691 8                  20056195.141
  20056198.234    20056197.730                          51.600          51.500

 115037720.360 8  89639792.368 7  85904803.309 8  21890940.898
  21890946.008    21890945.766    21890943.020          48.300          46.300
        49.900
 121474101.677 7  94479868.361 7                  22724236.203    22724235.523
  22724240.469    22724240.297                          43.900          42.000

 106231378.931 7                                  19907710.383    19907708.445
                                                        45.100

 115867611.610 7  90119261.794 7                  21645037.086    21645036.039
  21645040.570    21645040.285                          47.200          46.900

 107965185.243 8  83972936.070 8                  20218400.180    20218399.566
  20218401.484    20218401.555                          48.800          49.500

 128891369.106 6 100248857.254 6                  24120252.750    24120250.973
  24120256.996    24120256.586                          38.000          40.000

 106562341.457 7  82881836.697 7                  19948682.891    19948681.656
  19948682.883    19948683.863                          45.700          45.000

 125594943.474 7  97684954.990 6                  23528166.188    23528163.953
  23528168.648    23528169.254                          42.800          41.400

 19 10  7  0  0 40.0000000  0 19G01G03G10G11G14G16G18G22G25G26G31G32
                                R05R06R07R09R15R16R22
 119119431.987 7  92820336.303 7  88952822.136 8  22667670.609
  22667677.105    22667678.285    22667674.316          46.600          44.700
        48.600
 127479790.593 6  99334922.964 7  95195967.770 7  24258600.000
  24258607.797    24258607.039    24258605.430          39.400          42.100
        46.000
 119312786.391 7  92971000.822 7  89097210.996 8  22704463.109
  22704469.434    22704469.563    22704464.902          46.000          45.900
        48.000
 127434985.981 6  99300010.73143                  24250076.609
                  24250079.090                          40.200          19.300

 112017113.377 7  87286102.12846                  21316137.820
                  21316140.871                          47.800          38.500

 131715608.444 6 102635546.98042                  25064642.969
                  25064647.125                          38.600          16.900

 116958518.866 7  91136542.54045                  22256466.477
                  22256470.273                          45.400          30.700

 120117996.000 7  93598494.42545                  22857701.219
                  22857701.988                          46.800          34.000

 121486945.044 7  94665156.533 6  90720779.969 7  23118186.289
  23118193.250    23118192.797    23118191.141          43.100          41.700
        47.000
 119973070.355 7  93485538.710 7  89590309.636 7  22830112.383
  22830119.270    22830119.738    22830116.598          42.600          43.900
        46.700
 105399483.844 8  82129485.766 8                  20056839.320
  20056842.047    20056841.723                          51.600          51.300

 115044389.859 8  89644989.388 7  85909783.784 8  21892209.992
  21892215.789    21892214.871    21892212.227          48.500          46.000
        49.600
 121485362.471 7  94488626.715 7                  22726342.102    22726342.090
  22726346.652    22726347.039                          43.800          42.100

 106229300.298 7                                  19907320.289    19907319.004
                                                        44.800

 115854335.431 7  90108935.886 7                  21642557.492    21642555.988
  21642560.852    21642560.219                          47.000          46.700

 107950614.923 8  83961603.617 8                  20215671.711    20215671.035
  20215673.344    20215672.973                          48.900          49.100

 128912174.687 6 100265039.348 6                  24124146.195    24124145.039
  24124150.660    24124150.445                          37.300          40.600

 106571914.685 7  82889282.549 7                  19950474.961    19950473.582
  19950474.500    19950476.039                          45.500          45.200

 125604132.446 7  97692101.988 6                  23529886.844    23529885.176
  23529888.930    23529890.742                          42.600          40.900

 19 10  7  0  0 45.0000000  0 19G01G03G10G11G14G16G18G22G25G26G31G32
                                R05R06R07R09R15R16R22
 119119889.692 7  92820692.951 7  88953163.916 8  22667757.930
  22667764.426    22667765.305    22667761.367          46.600          44.500
        48.700
 127463068.420 6  99321892.697 6  95183480.448 7  24255418.672
  24255424.742    24255424.988    24255422.914          39.500          41.600
        45.000
 119327264.045 7  92982282.114 7  89108022.236 8  22707217.656
  22707224.586    22707224.543    22707220.109          45.600          45.500
        48.000
 127442439.167 6  99305818.40943                  24251494.492
                  24251498.063                          39.800          19.900

 112019268.327 8  87287781.30946                  21316548.055
                  21316550.844                          48.800          38.100

 131697786.646 6 102621659.83242                  25061250.852
                  25061255.941                          37.000          16.300

 116967041.274 7  91143183.37645                  22258088.000
                  22258091.918                          43.900          31.300

 120104260.978 7  93587791.81345                  22855087.578
                  22855088.430                          46.600          34.000

 121492595.605 7  94669559.551 7  90724999.564 7  23119261.930
  23119268.957    23119267.926    23119266.301          43.200          42.100
        47.000
 119957306.534 7  93473255.213 7  89578537.952 7  22827112.664
  22827119.504    22827120.133    22827116.988          42.700          44.100
        46.600
 105402882.148 8  82132133.803 8                  20057486.172
  20057488.949    20057488.504                          51.500          50.800

 115051062.226 8  89650188.637 7  85914766.393 8  21893479.508
  21893485.051    21893484.754    21893481.883          48.700          46.400
        49.600
 121496631.169 7  94497391.265 6                  22728450.781    22728450.391
  22728455.078    22728454.910                          43.700          41.800

 106227230.866 7                                  19906932.523    19906931.172
                                                        45.200

 115841059.817 7  90098610.407 7                  21640076.680    21640076.195
  21640080.520    21640080.102                          47.500          46.300

 107936060.544 8  83950283.547 8                  20212946.063    20212945.684
  20212947.523    20212947.301                          49.200          49.100

 128932984.049 6 100281224.382 6                  24128040.750    24128040.027
  24128045.469    24128044.375                          38.800          40.900

 106581507.365 7  82896743.513 7                  19952270.484    19952269.691
  19952270.309    19952271.676                          45.800          45.000

 125613334.981 7  97699259.521 7                  23531610.258    23531609.594
  23531614.836    23531614.664                          42.700          42.000

 19 10  7  0  0 50.0000000  0 19G01G03G10G11G14G16G18G22G25G26G31G32
                                R05R06R07R09R15R16R22
 119120362.684 7  92821061.537 7  88953517.129 8  22667848.266
  22667854.262    22667855.309    22667851.285          46.800          44.300
        48.700
 127446347.299 6  99308863.218 7  95170993.886 7  24252236.406
  24252243.379    24252243.105    24252241.184          40.600          42.400
        44.700
 119341750.153 7  92993569.989 7  89118839.775 8  22709974.539
  22709981.281    22709981.082    22709976.531          46.200          45.400
        48.300
 127449901.123 6  99311632.89043                  24252914.156
                  24252917.918                          39.400          19.600

 112021425.606 7  87289462.29846                  21316958.570
                  21316961.457                          47.800          38.700

 131679960.218 5 102607769.10342                  25057859.414
                  25057863.633                          35.800          16.900

 116975576.056 7  91149833.85345                  22259711.938
                  22259716.047                          44.500          30.400

 120090531.273 7  93577093.34045                  22852474.742
                  22852475.660                          46.700          33.900

 121498261.808 7  94673974.796 6  90729230.825 7  23120340.320
  23120346.195    23120346.094    23120344.426          42.800          41.300
        47.100
 119941546.764 7  93460974.904 7  89566769.321 7  22824114.141
  22824120.781    22824121.035    22824117.848          43.200          44.600
        46.800
 105406294.348 8  82134792.657 8                  20058135.023
  20058138.148    20058137.766                          51.900          50.800

 115057737.279 8  89655389.979 7  85919751.006 8  21894749.609
  21894755.375    21894755.039    21894751.922          48.200          46.400
        49.500
 121507907.539 7  94506161.753 6                  22730560.797    22730560.250
  22730564.258    22730564.547                          43.900          40.800

 106225170.289 7                                  19906546.695    19906544.934
                                                        45.000

 115827784.530 7  90088285.184 7                  21637596.961    21637596.320
  21637601.434    21637600.309                          47.200          47.000

 107921522.035 8  83938975.822 8                  20210223.641    20210222.867
  20210224.922    20210224.734                          48.900          49.300

 128953797.032 6 100297412.264 6                  24131934.914    24131934.363
  24131939.457    24131939.320                          38.900          40.000

 106591119.370 7  82904219.519 7                  19954069.906    19954069.289
  19954070.188    19954071.156                          46.000          45.100

 125622550.709 7  97706427.301 6                  23533337.016    23533336.129
  23533341.070    23533341.234                          43.000          40.900

 19 10  7  0  0 55.0000000  0 19G01G03G10G11G14G16G18G22G25G26G31G32
                                R05R06R07R09R15R16R22
 119120851.516 7  92821442.427 7  88953882.159 8  22667941.148
  22667947.586    22667948.406    22667944.297          46.400          44.600
        48.700
 127429627.695 6  99295834.978 7  95158508.456 7  24249054.578
  24249062.313    24249061.777    24249059.707          39.000          42.200
        45.300
 119356245.187 7  93004864.816 7  89129663.996 8  22712732.328
  22712739.465    22712739.219    22712734.820          46.500          45.700
        48.400
 127457372.451 6  99317454.67843                  24254336.398
                  24254340.195                          39.400          19.900

 112023585.743 8  87291145.52546                  21317369.289
                  21317372.344                          48.000          38.400

 131662129.604 5 102593875.18042                  25054466.016
                  25054470.668                          35.700          16.300

 116984123.601 7  91156494.27845                  22261338.602
                  22261342.574                          44.900          30.400

 120076807.466 7  93566399.47345                  22849863.016
                  22849864.145                          46.400          34.200

 121503944.147 7  94678402.599 6  90733474.137 7  23121421.742
  23121428.270    23121427.070    23121425.633          44.000          41.300
        47.700
 119925791.633 7  93448698.194 7  89555004.128 7  22821115.414
  22821122.863    22821122.992    22821119.379          43.000          44.600
        47.000
 105409720.921 8  82137462.726 8                  20058787.344
  20058790.016    20058789.793                          51.500          50.900

 115064415.545 8  89660593.815 7  85924738.016 8  21896021.063
  21896026.262    21896025.859    21896022.840          48.400          46.900
        49.400
 121519192.218 7  94514938.732 6                  22732671.531    22732670.594
  22732674.340    22732675.594                          43.300          41.500

 106223119.190 7                                  19906162.500    19906160.848
                                                        44.700

 115814509.999 7  90077960.570 7                  21635117.133    21635116.344
  21635121.266    21635120.527                          47.600          46.400

 107906999.840 8  83927680.797 8                  20207504.047    20207503.684
  20207505.293    20207505.242                          49.300          48.900

 128974614.171 6 100313603.344 6                  24135831.477    24135830.563
  24135835.781    24135835.105                          38.600          39.400

 106600751.120 7  82911710.891 7                  19955873.242    19955872.184
  19955872.566    19955874.223                          45.600          45.100

 125631780.301 7  97713605.870 6                  23535066.180    23535064.348
  23535069.676    23535070.113                          42.500          41.300

 19 10  7  0  1  0.0000000  0 19G01G03G10G11G14G16G18G22G25G26G31G32
                                R05R06R07R09R15R16R22
 119121355.642 7  92821835.259 7  88954258.608 8  22668036.922
  22668043.098    22668044.219    22668040.102          45.800          44.900
        49.200
 127412909.134 6  99282807.558 6  95146023.836 7  24245873.602
  24245880.207    24245880.477    24245877.793          39.500          41.900
        44.900
 119370748.637 7  93016166.205 7  89140494.495 7  22715492.422
  22715499.148    22715499.246    22715494.742          45.500          45.800
        47.700
 127464852.560 6  99323283.35543                  24255759.156
                  24255763.914                          39.800          19.000

 112025748.234 7  87292830.58946                  21317780.820
                  21317783.906                          47.800          38.700

 131644294.474 6 102579977.71442                  25051072.242
                  25051077.012                          37.000          16.900

 116992683.546 7  91163164.36345                  22262967.344
                  22262971.223                          44.200          30.700

 120063089.043 7  93555709.79545                  22847252.734
                  22847253.566                          45.200          34.000

 121509642.164 7  94682842.578 7  90737729.127 7  23122506.148
  23122512.215    23122511.313    23122510.051          43.200          42.000
        47.800
 119910040.618 7  93436424.674 7  89543242.034 7  22818118.125
  22818125.457    22818125.563    22818122.031          42.800          44.900
        47.000
 105413161.377 8  82140143.594 8                  20059442.234
  20059444.918    20059444.469                          50.900          50.400

 115071096.489 8  89665799.745 7  85929727.038 8  21897292.352
  21897297.617    21897297.297    21897294.219          48.900          45.900
        49.600
 121530484.697 7  94523721.764 7                  22734783.063    22734783.324
  22734788.879    22734787.984                          43.500          42.500

 106221077.056 7                                  19905779.414    19905777.922
                                                        44.700

 115801235.839 7  90067636.225 7                  21632637.125    21632637.023
  21632640.664    21632640.789                          47.800          46.400

 107892493.465 8  83916398.062 8                  20204787.531    20204787.074
  20204788.430    20204788.695                          48.700          49.500

 128995434.779 6 100329797.183 6                  24139727.203    24139726.707
  24139732.406    24139731.133                          38.900          38.600

 106610402.179 7  82919217.258 7                  19957679.789    19957678.895
  19957678.527    19957681.078                          46.100          45.000

 125641023.079 7  97720794.663 6                  23536797.781    23536795.691
  23536802.688    23536801.473                          42.100          41.400

 19 10  7  0  1  5.0000000  0 19G01G03G10G11G14G16G18G22G25G26G31G32
                                R05R06R07R09R15R16R22
 119121875.175 7  92822240.086 7  88954646.571 8  22668135.852
  22668142.371    22668143.293    22668138.945          45.000          45.100
        49.000
 127396191.760 6  99269781.028 7  95133540.104 7  24242692.352
  24242699.145    24242699.293    24242696.816          39.700          42.400
        45.400
 119385260.617 7  93027474.228 7  89151331.357 7  22718254.281
  22718260.305    22718260.914    22718256.289          45.500          45.400
        47.900
 127472341.556 6  99329118.92543                  24257184.984
                  24257189.355                          39.400          20.600

 112027913.186 7  87294517.56546                  21318193.180
                  21318195.883                          47.600          38.400

 131626454.976 6 102566076.82942                  25047676.570
                  25047682.375                          37.300          17.400

 117001255.883 7  91169844.09945                  22264598.883
                  22264602.574                          44.300          30.900

 120049376.079 7  93545024.38045                  22844643.117
                  22844644.027                          46.000          34.900

 121515355.902 7  94687294.873 6  90741995.890 7  23123593.148
  23123599.121    23123598.711    23123597.504          43.600          40.800
        47.000
 119894293.829 7  93424154.471 7  89531483.090 7  22815121.367
  22815128.492    22815129.188    22815125.496          42.900          44.100
        47.100
 105416615.768 8  82142835.344 8                  20060099.539
  20060102.285    20060101.855                          51.400          50.600

 115077780.236 8  89671007.849 7  85934718.136 8  21898564.047
  21898569.629    21898569.230    21898566.117          48.400          46.600
        49.900
 121541785.009 7  94532510.900 7                  22736897.703    22736897.426
  22736902.344    22736901.926                          43.600          43.100

 106219044.039 7                                  19905398.203    19905396.883
                                                        44.400

 115787962.307 7  90057312.371 7                  21630157.352    21630157.230
  21630161.234    21630161.148                          47.800          46.700

 107878003.129 8  83905127.801 8                  20202073.641    20202073.168
  20202075.301    20202075.008                          49.000          49.300

 129016259.165 6 100345993.925 6                  24143623.914    24143623.668
  24143627.645    24143627.980                          39.000          38.100

 106620072.595 7  82926738.707 7                  19959490.008    19959489.203
  19959490.316    19959491.445                          45.200          44.700

 125650279.253 7  97727993.915 6                  23538531.867    23538530.316
  23538534.156    23538535.223                          42.700          39.500

 19 10  7  0  1 10.0000000  0 18G01G03G10G11G14G16G18G22G25G26G31G32
                                R05R06R07R09R16R22
 119122410.120 7  92822656.931 7  88955046.046 8  22668237.797
  22668244.223    22668245.039    22668240.840          45.400          44.700
        49.100
 127379475.535 6  99256755.423 7  95121057.227 7  24239511.406
  24239517.922    24239518.191    24239516.000          39.500          42.200
        45.800
 119399781.109 7  93038788.896 7  89162174.576 7  22721016.789
  22721023.617    22721024.102    22721019.422          45.400          45.000
        47.500
 127479839.451 6  99334961.40943                  24258611.055
                  24258616.570                          39.700          20.900

 112030080.607 7  87296206.46546                  21318605.602
                  21318608.535                          47.900          38.600

 131608610.938 6 102552172.37242                  25044281.648
                  25044286.777                          36.900          17.400

 117009840.621 7  91176533.50245                  22266231.930
                  22266236.137                          44.600          30.800

 120035668.611 7  93534343.24045                  22842034.438
                  22842035.652                          47.400          34.100

 121521085.384 7  94691759.397 6  90746274.396 7  23124683.156
  23124690.023    23124689.441    23124687.844          45.000          41.600
        47.400
 119878551.296 7  93411887.562 7  89519727.319 7  22812126.188
  22812133.309    22812133.523    22812130.039          42.600          44.100
        47.300
 105420084.106 8  82145537.944 8                  20060759.344
  20060762.246    20060761.848                          51.300          51.000

 115084466.781 8  89676218.155 7  85939711.347 8  21899836.328
  21899841.902    21899841.723    21899838.480          48.200          46.100
        49.600
 121553093.129 7  94541306.102 7                  22739013.898    22739012.953
  22739018.164    22739017.410                          43.700          42.600

 106217020.139 7                                  19905018.602    19905017.469
                                                        44.500

 115774689.142 7  90046988.809 7                  21627678.508    21627677.852
  21627682.211    21627681.621                          47.400          46.500

 107863528.792 8  83893869.985 8                  20199363.195    20199362.859
  20199364.648    20199364.449                          48.600          49.100

 106629762.317 7  82934275.157 7                  19961304.250    19961302.961
  19961303.781    19961305.266                          45.200          44.800

 125659548.644 7  97735203.453 6                  23540267.875    23540266.980
  23540271.219    23540271.605                          42.700          40.900

 19 10  7  0  1 15.0000000  0 18G01G03G10G11G14G16G18G22G25G26G31G32
                                R05R06R07R09R16R22
 119122960.633 7  92823085.895 7  88955457.132 8  22668342.414
  22668348.773    22668349.852    22668345.504          46.300          44.600
        48.700
 127362760.685 6  99243730.887 6  95108575.379 7  24236331.273
  24236337.352    24236337.301    24236335.371          39.400          41.500
        45.600
 119414310.270 7  93050110.332 7  89173024.284 7  22723782.164
  22723788.730    22723788.805    22723784.191          44.900          45.300
        47.400
 127487346.331 6  99340810.90443                  24260040.117
                  24260045.230                          40.200          19.900

 112032250.688 7  87297897.43246                  21319018.680
                  21319021.484                          47.800          38.200

 131590762.521 6 102538264.54642                  25040885.484
                  25040889.797                          38.000          17.800

 117018437.942 7  91183232.71345                  22267868.563
                  22267872.145                          45.500          30.600

 120021966.830 7  93523666.52445                  22839427.523
                  22839428.414                          46.200          33.800

 121526830.741 7  94696236.300 7  90750564.786 7  23125776.172
  23125783.238    23125782.715    23125780.953          43.700          42.100
        46.900
 119862813.198 7  93399624.141 7  89507974.864 7  22809131.328
  22809138.594    22809138.934    22809135.184          43.000          44.400
        47.600
 105423566.574 8  82148251.553 8                  20061422.484
  20061424.934    20061424.492                          51.900          50.600

 115091156.305 7  89681430.776 7  85944706.765 8  21901109.211
  21901114.996    21901114.703    21901111.496          47.600          46.500
        49.600
 121564409.364 7  94550107.625 7                  22741130.523    22741130.309
  22741134.539    22741134.277                          44.900          43.200

 106215005.466 7                                  19904641.594    19904640.188
                                                        44.500

 115761416.582 8  90036665.703 7                  21625198.875    21625198.223
  21625202.203    21625202.109                          48.000          46.300

 107849070.622 8  83882624.751 8                  20196655.570    20196655.203
  20196657.000    20196656.895                          49.100          49.200

 106639471.537 7  82941826.773 7                  19963121.484    19963120.766
  19963121.418    19963122.758                          45.800          44.700

 125668831.555 7  97742423.513 6                  23542007.070    23542006.258
  23542009.480    23542010.797                          42.400          41.600

 19 10  7  0  1 20.0000000  0 18G01G03G10G11G14G16G18G22G25G26G31G32
                                R05R06R07R09R16R22
 119123526.712 7  92823526.983 7  88955879.846 8  22668450.297
  22668456.645    22668457.625    22668453.121          45.800          44.200
        48.500
 127346047.186 6  99230707.382 6  95096094.545 7  24233149.516
  24233156.516    24233156.695    24233154.668          38.900          41.700
        45.500
 119428848.112 7  93061438.496 7  89183880.448 7  22726548.680
  22726554.516    22726555.199    22726550.805          44.700          45.500
        47.900
 127494862.221 6  99346667.47443                  24261469.711
                  24261475.367                          39.800          20.900

 112034423.363 7  87299590.42646                  21319431.648
                  21319434.813                          47.800          38.600

 131572909.808 6 102524353.33243                  25037488.273
                  25037492.527                          37.900          18.600

 117027047.773 7  91189941.66445                  22269506.695
                  22269510.598                          45.400          31.100

 120008270.731 7  93512994.23945                  22836821.086
                  22836822.113                          46.000          34.000

 121532592.032 7  94700725.610 6  90754867.034 7  23126873.203
  23126879.023    23126878.883    23126877.074          43.700          41.100
        47.800
 119847079.551 7  93387364.150 7  89496225.713 7  22806137.203
  22806144.922    22806144.805    22806141.160          43.300          45.400
        47.800
 105427063.128 8  82150976.155 8                  20062087.539
  20062090.328    20062089.813                          51.000          51.100

 115097848.786 8  89686645.694 7  85949704.403 8  21902382.688
  21902388.461    21902388.152    21902385.098          48.500          45.900
        49.700
 121575733.570 7  94558915.328 7                  22743248.930    22743248.449
  22743252.727    22743252.895                          44.700          42.800

 106213000.100 7                                  19904266.234    19904264.449
                                                        44.900

 115748144.785 8  90026343.187 7                  21622719.102    21622719.219
  21622722.570    21622722.813                          48.100          45.800

 107834628.603 8  83871392.079 8                  20193950.977    20193950.500
  20193952.184    20193952.316                          49.500          49.300

 106649200.187 7  82949393.507 7                  19964942.961    19964941.902
  19964942.691    19964943.980                          45.600          44.800

 125678128.035 6  97749654.056 7                  23543747.742    23543746.566
  23543753.355    23543752.746                          41.400          42.100

 19 10  7  0  1 25.0000000  0 18G01G03G10G11G14G16G18G22G25G26G31G32
                                R05R06R07R09R16R22
 119124107.986 7  92823979.923 7  88956313.914 8  22668560.609
  22668567.223    22668568.027    22668563.867          46.000          43.900
        48.100
 127329334.716 6  99217684.692 7  95083614.467 7  24229970.367
  24229976.434    24229976.625    24229974.133          39.900          42.800
        45.200
 119443394.245 7  93072773.156 7  89194742.833 7  22729316.773
  22729322.730    22729323.297    22729318.980          45.100          45.700
        47.800
 127502386.784 6  99352530.72543                  24262901.969
                  24262907.285                          40.400          20.600

 112036598.296 7  87301285.17746                  21319845.703
                  21319848.695                          46.600          38.900

 131555052.443 6 102510438.57242                  25034090.656
                  25034094.250                          37.700          16.300

 117035669.790 7  91196660.12645                  22271146.867
                  22271151.438                          44.500          30.400

 119994579.996 7  93502326.14045                  22834215.906
                  22834216.824                          45.700          34.100

 121538368.865 7  94705227.047 6  90759180.910 7  23127972.438
  23127978.746    23127978.195    23127976.652          44.100          41.700
        47.500
 119831350.012 7  93375107.398 7  89484479.653 7  22803143.742
  22803151.719    22803151.836    22803147.855          43.400          45.200
        47.300
 105430573.441 8  82153711.469 8                  20062755.445
  20062758.203    20062757.961                          50.500          51.100

 115104543.922 8  89691862.665 7  85954704.003 8  21903656.945
  21903662.805    21903662.332    21903659.055          48.400          45.900
        49.500
 121587065.511 7  94567729.051 7                  22745368.609    22745368.191
  22745372.570    22745372.461                          44.300          42.600

 106211003.707 7                                  19903892.320    19903890.129
                                                        45.200

 115734873.329 7  90016020.946 7                  21620240.148    21620239.898
  21620244.230    21620243.629                          47.800          46.200

 107820202.487 8  83860171.770 8                  20191249.773    20191249.172
  20191251.168    20191250.879                          48.900          49.100

 106658948.017 7  82956975.144 7                  19966767.484    19966766.949
  19966767.883    19966768.859                          45.900          44.800

 125687437.562 6  97756894.761 6                  23545491.961    23545490.941
  23545496.652    23545497.281                          41.000          41.400

 19 10  7  0  1 30.0000000  0 18G01G03G10G11G14G16G18G22G25G26G31G32
                                R05R06R07R09R16R22
 119124704.907 7  92824445.073 7  88956759.672 8  22668673.813
  22668680.961    22668681.797    22668677.492          46.400          44.200
        48.800
 127312623.756 6  99204663.146 7  95071135.482 7  24226789.711
  24226796.492    24226796.652    24226794.039          39.900          42.600
        44.600
 119457949.111 7  93084114.618 7  89205611.733 7  22732086.188
  22732092.590    22732093.121    22732088.539          44.100          44.600
        47.900
 127509920.472 6  99358401.10543                  24264335.633
                  24264340.625                          40.100          20.900

 112038775.966 7  87302982.07046                  21320260.172
                  21320263.105                          47.300          38.600

 131537190.841 6 102496520.34542                  25030690.648
                  25030695.484                          37.400          16.300

 117044304.389 7  91203388.37445                  22272790.391
                  22272794.367                          44.500          30.600

 119980895.088 7  93491662.58645                  22831611.547
                  22831612.547                          46.000          34.300

 121544161.662 7  94709740.911 6  90763506.695 7  23129074.781
  23129081.105    23129080.527    23129079.102          44.400          41.500
        47.300
 119815625.043 7  93362854.188 7  89472736.991 7  22800151.672
  22800159.113    22800159.535    22800155.746          42.500          45.500
        47.500
 105434097.943 8  82156457.843 8                  20063426.211
  20063429.008    20063428.668                          51.200          51.100

 115111242.092 8  89697082.031 7  85959705.884 8  21904931.219
  21904937.156    21904936.922    21904933.738          48.500          46.400
        49.300
 121598405.571 7  94576549.123 7                  22747488.938    22747489.293
  22747493.816    22747493.938                          44.900          42.100

 106209016.571 7                                  19903519.984    19903517.973
                                                        45.300

 115721602.632 7  90005699.303 7                  21617761.617    21617760.590
  21617765.582    21617764.508                          47.900          46.800

 107805792.665 8  83848964.150 8                  20188551.023    20188550.547
  20188552.266    20188552.316                          49.300          49.200

 106668715.367 7  82964571.983 7                  19968595.734    19968595.164
  19968595.684    19968597.246                          45.900          44.700

 125696760.543 7  97764145.995 6                  23547240.266    23547237.672
  23547242.824    23547243.789                          42.100          40.500

 19 10  7  0  1 35.0000000  0 18G01G03G10G11G14G16G18G22G25G26G31G32
                                R05R06R07R09R16R22
 119125317.092 7  92824922.087 7  88957216.819 8  22668790.852
  22668797.023    22668798.223    22668793.969          46.400          43.900
        48.500
 127295913.849 6  99191642.437 7  95058657.295 7  24223609.984
  24223616.895    24223617.039    24223614.238          38.800          43.200
        45.200
 119472512.373 7  93095462.608 7  89216486.874 7  22734857.781
  22734863.941    22734864.152    22734859.754          44.600          45.600
        47.800
 127517462.822 6  99364278.25743                  24265770.313
                  24265775.867                          39.200          20.600

 112040955.958 7  87304680.76146                  21320674.727
                  21320678.055                          47.800          38.200

 131519324.714 6 102482598.72142                  25027291.250
                  25027295.570                          36.400          16.300

 117052951.254 7  91210126.18545                  22274435.617
                  22274439.742                          44.200          31.100

 119967215.628 7  93481003.26945                  22829008.445
                  22829009.484                          46.000          34.400

 121549970.034 7  94714266.945 6  90767844.138 7  23130179.797
  23130186.250    23130185.707    23130184.297          43.000          41.900
        47.200
 119799904.270 7  93350604.251 7  89460997.473 8  22797160.039
  22797167.391    22797167.965    22797163.996          43.000          45.200
        48.000
 105437636.243 8  82159214.967 8                  20064099.555
  20064102.164    20064101.961                          51.300          50.500

 115117942.964 8  89702303.479 7  85964709.782 8  21906206.445
  21906212.035    21906212.145    21906208.871          48.800          46.400
        49.900
 121609753.354 7  94585375.156 6                  22749613.320    22749612.520
  22749616.695    22749616.852                          44.900          41.900

 106207038.388 7                                  19903148.547    19903147.023
                                                        44.900

 115708332.337 7  89995377.974 7                  21615282.070    21615281.605
  21615285.918    21615285.477                          47.800          46.600

 107791398.765 8  83837768.910 8                  20185855.156    20185855.125
  20185856.473    20185856.871                          48.500          49.500

 106678501.904 7  82972183.726 7                  19970428.492    19970427.051
  19970428.184    19970429.340                          45.600          44.700

 125706096.721 6  97771407.465 6                  23548988.500    23548986.492
  23548991.305    23548992.301                          41.800          40.100

 19 10  7  0  1 40.0000000  0 18G01G03G10G11G14G16G18G22G25G26G31G32
                                R05R06R07R09R16R22
 119125944.813 7  92825411.223 7  88957685.558 8  22668910.250
  22668917.016    22668917.570    22668913.441          45.800          44.100
        48.600
 127279205.307 6  99178622.843 7  95046180.156 7  24220430.984
  24220437.250    24220437.340    24220435.039          39.200          43.000
        45.200
 119487084.229 7  93106817.295 7  89227368.458 7  22737630.914
  22737636.445    22737636.945    22737632.656          44.900          45.200
        47.300
 127525014.138 6  99370162.40043                  24267208.445
                  24267213.047                          39.500          20.400

 112043138.540 8  87306381.47846                  21321090.234
                  21321093.387                          48.400          38.700

 131501454.239 6 102468673.74642                  25023891.375
                  25023895.102                          37.400          16.900

 117061610.587 7  91216873.71445                  22276083.617
                  22276087.590                          44.800          30.900

 119953541.859 7  93470348.38545                  22826406.289
                  22826407.469                          46.100          33.900

 121555794.320 7  94718805.343 6  90772193.434 7  23131288.031
  23131294.629    23131294.281    23131292.707          42.500          40.900
        47.200
 119784187.977 7  93338357.790 7  89449261.293 7  22794169.461
  22794176.941    22794177.086    22794173.070          43.200          44.900
        47.400
 105441188.582 8  82161983.015 8                  20064775.578
  20064778.320    20064778.027                          51.900          50.300

 115124646.778 8  89707527.231 7  85969715.868 8  21907482.203
  21907487.895    21907487.762    21907484.457          48.900          46.400
        49.600
 121621109.127 7  94594207.427 6                  22751737.164    22751737.051
  22751740.973    22751741.152                          44.700          41.800

 106205069.601 7                                  19902779.734    19902778.402
                                                        44.600

 115695062.677 7  89985057.124 7                  21612803.211    21612802.852
  21612807.297    21612806.641                          47.800          46.400

 107777021.079 8  83826586.269 8                  20183162.758    20183162.383
  20183164.457    20183164.145                          48.800          48.900

 106688307.788 7  82979810.525 7                  19972263.250    19972262.926
  19972264.418    19972265.160                          45.500          44.800

 125715446.219 7  97778679.290 6                  23550739.469    23550738.063
  23550742.664    23550743.176                          42.000          39.500

 19 10  7  0  1 45.0000000  0 18G01G03G10G11G14G16G18G22G25G26G31G32
                                R05R06R07R09R16R22
 119126587.839 7  92825912.282 7  88958165.741 8  22669032.680
  22669039.090    22669040.066    22669035.750          44.500          44.000
        48.200
 127262497.958 6  99165604.146 7  95033703.911 7  24217251.008
  24217257.609    24217257.680    24217255.738          39.700          42.600
        45.100
 119501664.515 7  93118178.565 7  89238256.337 7  22740404.898
  22740411.418    22740411.688    22740407.379          44.600          44.800
        47.300
 127532574.183 6  99376053.36643                  24268646.016
                  24268651.012                          39.900          19.300

 112045323.542 8  87308084.08046                  21321505.922
                  21321509.086                          49.000          38.900

 131483579.361 6 102454745.24142                  25020489.180
                  25020493.910                          37.400          16.900

 117070282.153 7  91223630.78545                  22277733.398
                  22277737.840                          44.300          30.800

 119939873.664 7  93459697.84145                  22823805.203
                  22823806.563                          45.900          33.700

 121561634.235 7  94723355.926 6  90776554.408 7  23132399.570
  23132405.582    23132405.391    23132404.059          43.000          41.300
        47.000
 119768475.986 7  93326114.694 7  89437528.323 7  22791180.117
  22791187.016    22791187.145    22791183.324          44.400          45.200
        47.500
 105444754.768 8  82164761.870 8                  20065454.156
  20065457.047    20065456.676                          50.900          51.300

 115131353.349 8  89712753.119 7  85974724.020 8  21908758.086
  21908764.117    21908763.957    21908760.652          48.300          46.900
        49.800
 121632472.737 7  94603045.772 6                  22753863.523    22753862.984
  22753866.566    22753867.016                          45.500          41.400

 106203110.007 7                                  19902412.484    19902410.949
                                                        44.700

 115681793.530 7  89974736.667 7                  21610324.813    21610324.230
  21610328.484    21610327.852                          47.800          47.600

 107762659.421 8  83815416.110 8                  20180473.719    20180472.695
  20180474.617    20180474.680                          48.900          48.700

 106698132.899 7  82987452.290 7                  19974102.609    19974102.344
  19974102.590    19974104.414                          45.600          44.900

 125724808.887 6  97785961.350 6                  23552493.914    23552491.480
  23552496.684    23552497.043                          41.600          40.000

 19 10  7  0  1 50.0000000  0 18G01G03G10G11G14G16G18G22G25G26G31G32
                                R05R06R07R09R16R22
 119127246.325 7  92826425.384 7  88958657.467 8  22669158.211
  22669164.387    22669165.512    22669160.957          45.200          44.500
        48.400
 127245791.929 6  99152586.474 7  95021228.669 7  24214072.133
  24214078.758    24214078.449    24214076.664          39.600          42.700
        45.400
 119516253.303 7  93129546.449 7  89249150.559 7  22743181.281
  22743187.754    22743187.645    22743183.461          45.000          44.800
        47.600
 127540143.086 6  99381951.22543                  24270086.445
                  24270091.090                          39.200          20.400

 112047511.022 7  87309788.60946                  21321922.266
                  21321925.527                          47.200          38.600

 131465700.157 6 102440813.42742                  25017086.703
                  25017091.379                          36.100          16.900

 117078966.141 7  91230397.52145                  22279386.141
                  22279390.270                          44.300          30.200

 119926211.075 7  93449051.68045                  22821205.938
                  22821206.484                          45.700          33.900

 121567489.921 7  94727918.813 6  90780927.184 7  23133513.672
  23133520.188    23133519.559    23133518.391          43.900          40.600
        47.100
 119752768.433 7  93313875.068 7  89425798.670 7  22788190.016
  22788198.211    22788198.102    22788194.301          43.900          45.300
        47.600
 105448334.885 8  82167551.581 8                  20066135.398
  20066138.359    20066137.934                          51.200          51.200

 115138062.783 7  89717981.255 7  85979734.320 8  21910035.242
  21910040.785    21910040.879    21910037.402          47.800          46.500
        49.500
 121643844.350 7  94611890.370 6                  22755990.727    22755990.520
  22755994.449    22755994.207                          45.600          41.100

 106201159.628 7                                  19902046.719    19902045.504
                                                        45.400

 115668525.045 7  89964416.740 7                  21607845.922    21607845.703
  21607849.750    21607849.219                          47.900          46.300

 107748313.898 8  83804258.491 8                  20177786.766    20177786.289
  20177788.137    20177788.184                          49.000          49.000

 106707977.327 7  82995109.075 7                  19975945.852    19975945.184
  19975946.289    19975947.277                          45.600          45.000

 125734184.743 6  97793253.692 6                  23554250.508    23554248.180
  23554252.523    23554253.418                          41.700          39.800

 19 10  7  0  1 55.0000000  0 18G01G03G10G11G14G16G18G22G25G26G31G32
                                R05R06R07R09R16R22
 119127920.432 7  92826950.655 7  88959160.844 8  22669286.023
  22669292.938    22669293.773    22669289.230          46.000          44.300
        48.100
 127229087.447 6  99139570.001 7  95008754.534 7  24210893.828
  24210900.484    24210899.711    24210898.090          39.000          42.400
        45.800
 119530850.800 7  93140921.126 7  89260051.295 8  22745958.859
  22745965.598    22745965.727    22745961.160          44.600          44.900
        48.300
 127547720.986 6  99387856.03643                  24271529.563
                  24271532.984                          40.200          19.000

 112049701.216 7  87311495.25746                  21322338.859
                  21322342.184                          47.100          39.000

 131447816.763 6 102426878.38342                  25013683.070
                  25013688.789                          37.300          17.400

 117087662.634 7  91237174.00845                  22281041.266
                  22281045.199                          45.100          30.400

 119912554.344 7  93438410.08445                  22818606.742
                  22818607.789                          45.200          34.200

 121573361.567 7  94732494.112 6  90785311.845 7  23134631.172
  23134637.977    23134636.922    23134635.625          44.300          41.500
        47.100
 119737065.504 7  93301639.032 7  89414072.478 7  22785202.180
  22785209.453    22785210.145    22785206.277          43.600          45.400
        47.300
 105451929.161 8  82170352.320 8                  20066819.359
  20066822.211    20066821.887                          51.900          51.000

 115144775.279 8  89723211.772 7  85984746.896 8  21911312.891
  21911318.145    21911318.277    21911314.773          48.300          47.200
        49.500
 121655224.017 7  94620741.218 6                  22758119.352    22758119.207
  22758123.527    22758122.828                          46.000          41.700

 106199218.617 7                                  19901683.352    19901681.707
                                                        45.400

 115655257.221 7  89954097.325 7                  21605367.180    21605366.844
  21605370.887    21605370.629                          47.600          46.600

 107733984.749 8  83793113.603 8                  20175103.844    20175102.922
  20175104.664    20175104.867                          48.400          48.800

 106717841.130 7  83002780.936 7                  19977792.570    19977791.641
  19977793.184    19977793.766                          46.000          45.000

 125743574.111 6  97800556.514 6                  23556008.172    23556007.004
  23556011.168    23556012.227                          41.800          40.100

 19 10  7  0  2  0.0000000  0 18G01G03G10G11G14G16G18G22G25G26G31G32
                                R05R06R07R09R16R22
 119128609.943 7  92827487.931 7  88959675.737 8  22669417.383
  22669423.848    22669424.828    22669420.504          45.200          45.000
        48.600
 127212384.265 6  99126554.538 7  94996281.395 7  24207715.008
  24207722.223    24207721.195    24207719.512          39.200          42.400
        45.600
 119545456.828 7  93152302.419 7  89270958.369 8  22748738.859
  22748744.727    22748745.184    22748740.711          44.300          45.400
        48.000
 127555307.705 6  99393767.76943                  24272971.805
                  24272976.551                          37.800          20.100

 112051893.952 7  87313203.89246                  21322756.609
                  21322759.406                          47.900          38.900

 131429929.118 6 102412939.95342                  25010279.977
                  25010284.961                          36.100          17.400

 117096371.475 7  91243960.12645                  22282699.039
                  22282702.465                          44.100          30.600

 119898903.284 7  93427772.89345                  22816009.000
                  22816010.074                          45.900          33.900

 121579248.988 7  94737081.734 6  90789708.305 7  23135750.906
  23135758.551    23135757.320    23135755.867          43.800          41.100
        47.000
 119721367.033 7  93289406.468 7  89402349.613 7  22782214.570
  22782222.297    22782222.719    22782218.852          44.100          44.600
        47.900
 105455537.403 8  82173163.945 8                  20067505.656
  20067508.551    20067508.500                          50.900          50.900

 115151490.661 8  89728444.526 7  85989761.616 8  21912590.570
  21912595.965    21912596.184    21912592.738          48.700          47.300
        49.500
 121666611.663 7  94629598.265 6                  22760248.977    22760249.660
  22760253.637    22760253.160                          46.000          41.200

 106197286.973 7                                  19901321.078    19901319.852
                                                        44.600

 115641990.141 7  89943778.490 7                  21602888.609    21602888.430
  21602892.379    21602892.363                          47.400          47.100

 107719671.874 8  83781981.372 8                  20172422.703    20172422.441
  20172424.582    20172424.555                          48.800          48.800

 106727724.204 7  83010467.760 7                  19979642.031    19979641.633
  19979643.363    19979644.051                          45.800          44.900

 125752976.608 7  97807869.587 6                  23557770.383    23557768.871
  23557772.938    23557773.543                          42.000          40.400

 19 10  7  0  2  5.0000000  0 18G01G03G10G11G14G16G18G22G25G26G31G32
                                R05R06R07R09R16R22
 119129314.840 7  92828037.218 7  88960202.119 8  22669551.789
  22669557.965    22669558.863    22669554.539          44.900          44.100
        48.400
 127195682.399 6  99113540.085 7  94983809.238 7  24204536.594
  24204543.418    24204543.305    24204540.957          38.800          42.600
        45.400
 119560071.286 7  93163690.315 7  89281871.767 8  22751519.625
  22751526.035    22751526.297    22751521.695          44.600          46.100
        48.100
 127562903.215 6  99399686.32743                  24274418.234
                  24274421.711                          39.400          20.100

 112054089.146 8  87314914.43246                  21323174.242
                  21323177.238                          48.200          38.500

 131412037.126 5 102398998.16542                  25006875.023
                  25006880.395                          35.500          15.600

 117105092.567 7  91250755.77645                  22284358.094
                  22284362.066                          44.300          30.100

 119885257.836 7  93417140.07845                  22813412.375
                  22813413.844                          45.800          34.400

 121585152.093 7  94741681.552 6  90794116.475 7  23136874.289
  23136881.566    23136880.961    23136878.961          43.900          41.300
        47.500
 119705673.004 7  93277177.357 7  89390630.052 8  22779228.336
  22779235.699    22779236.254    22779232.219          44.300          45.300
        48.100
 105459159.554 8  82175986.391 8                  20068195.352
  20068197.902    20068197.805                          51.100          50.800

 115158208.874 8  89733679.500 7  85994778.472 8  21913868.914
  21913874.434    21913874.492    21913871.098          49.300          46.700
        49.000
 121678007.126 7  94638461.420 6                  22762381.492    22762381.301
  22762384.504    22762384.867                          46.000          41.300

 106195364.413 7                                  19900960.961    19900959.496
                                                        44.900

 115628723.707 7  89933460.165 7                  21600410.523    21600410.289
  21600414.195    21600413.879                          47.900          46.700

 107705375.135 8  83770861.694 8                  20169746.328    20169745.285
  20169747.211    20169747.160                          48.600          48.700

 106737626.505 7  83018169.557 7                  19981496.367    19981495.375
  19981496.555    19981497.703                          46.000          45.000

 125762392.352 6  97815192.936 6                  23559534.359    23559533.129
  23559537.805    23559537.660                          41.400          40.900

 19 10  7  0  2 10.0000000  0 18G01G03G10G11G14G16G18G22G25G26G31G32
                                R05R06R07R09R16R22
 119130035.258 7  92828598.568 7  88960740.086 8  22669688.219
  22669695.031    22669696.086    22669691.664          45.600          44.400
        48.500
 127178981.950 6  99100526.786 7  94971338.132 7  24201358.648
  24201365.727    24201365.387    24201363.043          38.700          42.600
        45.500
 119574694.345 7  93175084.906 7  89292791.570 8  22754301.898
  22754308.613    22754308.883    22754304.496          44.700          45.000
        48.000
 127570507.603 6  99405611.77843                  24275865.281
                  24275868.602                          38.300          19.000

 112056286.975 7  87316627.03046                  21323592.359
                  21323595.344                          47.600          38.800

 131394140.971 6 102385053.15542                  25003470.094
                  25003474.961                          36.500          16.900

 117113826.091 7  91257561.11145                  22286020.070
                  22286024.109                          44.900          31.100

 119871618.141 7  93406511.75345                  22810816.766
                  22810817.902                          45.900          33.700

 121591071.060 7  94746293.722 6  90798536.478 7  23138000.625
  23138007.371    23138007.418    23138005.258          43.900          41.800
        47.100
 119689983.554 7  93264951.813 7  89378913.911 7  22776242.977
  22776250.000    22776250.789    22776246.434          43.700          45.200
        47.800
 105462795.686 8  82178819.748 8                  20068887.125
  20068890.184    20068889.563                          50.800          51.100

 115164930.042 8  89738916.777 7  85999797.531 8  21915148.375
  21915153.914    21915153.480    21915150.023          49.100          46.300
        49.100
 121689410.697 7  94647330.865 6                  22764515.383    22764514.676
  22764517.906    22764517.895                          46.500          41.300

 106193451.104 7                                  19900602.492    19900600.980
                                                        45.400

 115615457.842 7  89923142.272 7                  21597932.445    21597932.020
  21597936.285    21597935.746                          47.400          46.600

 107691094.689 8  83759754.688 8                  20167072.148    20167071.191
  20167072.219    20167072.875                          48.800          48.300

 106747548.167 7  83025886.403 7                  19983354.156    19983352.629
  19983354.328    19983355.145                          45.400          45.600

 125771821.356 6  97822526.590 6                  23561300.648    23561298.734
  23561304.762    23561304.020                          41.200          40.800

 19 10  7  0  2 15.0000000  0 18G01G03G10G11G14G16G18G22G25G26G31G32
                                R05R06R07R09R16R22
 119130771.021 7  92829171.875 7  88961289.513 8  22669828.594
  22669835.324    22669836.102    22669831.684          45.600          44.600
        48.300
 127162282.824 6  99087514.464 7  94958868.013 7  24198180.766
  24198187.340    24198187.668    24198185.121          39.200          42.300
        44.800
 119589325.804 7  93186486.052 7  89303717.668 8  22757086.445
  22757093.230    22757093.129    22757088.688          45.300          45.100
        48.000
 127578120.704 6  99411544.09643                  24277313.305
                  24277317.574                          39.200          20.900

 112058487.244 7  87318341.52946                  21324011.328
                  21324013.957                          47.600          38.200

 131376240.500 6 102371104.74042                  25000062.836
                  25000068.395                          36.000          17.400

 117122571.830 7  91264375.97845                  22287683.977
                  22287688.465                          44.100          31.200

 119857984.059 7  93395887.80345                  22808222.414
                  22808223.664                          45.300          34.300

 121597005.675 7  94750918.135 6  90802968.196 7  23139130.234
  23139137.359    23139136.758    23139134.688          43.600          41.200
        47.000
 119674298.513 7  93252729.725 7  89367201.071 7  22773257.961
  22773265.531    22773265.891    22773261.668          43.200          45.200
        47.200
 105466445.651 8  82181663.901 8                  20069581.703
  20069584.410    20069584.270                          51.100          51.300

 115171654.013 8  89744156.240 7  86004818.678 8  21916427.578
  21916433.172    21916433.102    21916429.531          49.000          47.000
        49.500
 121700822.068 7  94656206.388 6                  22766649.688    22766649.867
  22766652.297    22766652.684                          46.000          41.400

 106191547.143 7                                  19900245.609    19900244.238
                                                        45.400

 115602192.715 8  89912824.953 7                  21595454.828    21595454.203
  21595457.902    21595457.590                          48.100          46.200

 107676830.395 8  83748660.246 8                  20164400.320    20164399.770
  20164401.570    20164401.660                          48.200          48.100

 106757488.946 7  83033618.127 7                  19985214.211    19985213.871
  19985214.840    19985216.219                          45.600          44.600

 125781263.418 6  97829870.402 6                  23563069.469    23563068.109
  23563073.270    23563073.340                          41.700          41.300

 19 10  7  0  2 20.0000000  0 18G01G03G10G11G14G16G18G22G25G26G31G32
                                R05R06R07R09R16R22
 119131522.265 7  92829757.271 7  88961850.517 8  22669971.586
  22669978.133    22669978.840    22669974.668          45.700          43.800
        48.600
 127145585.152 6  99074503.309 6  94946398.975 7  24195003.461
  24195010.176    24195009.898    24195007.254          39.400          41.600
        45.000
 119603965.862 7  93197893.878 7  89314650.174 8  22759872.852
  22759878.809    22759879.176    22759874.586          44.700          44.700
        48.200
 127585742.668 6  99417483.27443                  24278764.289
                  24278768.293                          39.900          20.400

 112060690.086 8  87320058.03446                  21324430.180
                  21324433.301                          48.000          38.900

 131358335.842 5 102357153.06442                  24996655.438
                  24996661.293                          35.900          16.300

 117131330.005 7  91271200.52345                  22289350.570
                  22289354.938                          43.900          31.300

 119844355.841 7  93385268.41945                  22805629.453
                  22805630.258                          45.700          34.000

 121602956.176 7  94755554.873 6  90807411.741 7  23140262.945
  23140269.547    23140269.246    23140266.996          43.100          41.700
        47.000
 119658618.086 7  93240511.233 7  89355491.679 7  22770274.008
  22770281.289    22770281.590    22770277.945          43.000          45.700
        47.800
 105470109.596 8  82184518.928 8                  20070278.477
  20070281.773    20070281.430                          50.900          50.700

 115178380.970 8  89749398.035 7  86009842.052 8  21917707.359
  21917713.105    21917713.242    21917709.516          48.700          47.000
        48.500
 121712241.420 7  94665088.116 6                  22768785.516    22768786.258
  22768789.309    22768788.770                          46.300          40.900

 106189652.505 7                                  19899890.391    19899889.414
                                                        44.900

 115588928.285 7  89902508.178 7                  21592976.891    21592976.336
  21592980.258    21592979.715                          47.900          46.900

 107662582.512 8  83737578.569 8                  20161732.430    20161731.715
  20161733.324    20161733.477                          48.800          48.700

 106767449.031 7  83041364.877 7                  19987078.445    19987078.266
  19987079.398    19987080.426                          45.400          45.300

 125790718.703 6  97837224.504 6                  23564840.867    23564839.578
  23564843.859    23564845.047                          41.700          41.500

 19 10  7  0  2 25.0000000  0 18G01G03G10G11G14G16G18G22G25G26G31G32
                                R05R06R07R09R16R22
 119132288.748 7  92830354.512 7  88962422.872 8  22670117.156
  22670124.301    22670124.945    22670120.609          45.300          44.300
        48.300
 127128888.646 6  99061493.044 7  94933930.804 7  24191826.367
  24191833.059    24191832.555    24191830.469          38.600          42.400
        45.000
 119618614.172 7  93209308.144 7  89325588.841 8  22762659.961
  22762665.992    22762666.695    22762662.141          44.200          45.300
        48.700
 127593373.186 6  99423429.15643                  24280216.117
                  24280220.570                          38.600          21.100

 112062895.239 7  87321776.33746                  21324849.836
                  21324853.074                          47.300          39.000

 131340426.693 5 102343197.92742                  24993248.172
                  24993253.203                          35.700          17.800

 117140100.232 7  91278034.46845                  22291019.711
                  22291024.082                          44.600          30.500

 119830733.135 7  93374653.32245                  22803036.563
                  22803037.691                          44.900          34.300

 121608922.218 7  94760203.718 6  90811866.899 7  23141398.242
  23141404.656    23141404.277    23141402.191          44.300          41.900
        47.000
 119642941.986 7  93228296.099 7  89343785.513 7  22767290.961
  22767298.297    22767298.633    22767294.953          42.600          44.500
        47.900
 105473787.257 8  82187384.638 8                  20070978.758
  20070981.672    20070981.305                          50.500          50.700

 115185110.597 8  89754641.894 7  86014867.426 8  21918988.000
  21918994.176    21918993.699    21918990.156          48.700          46.700
        49.300
 121723668.628 7  94673975.912 6                  22770923.352    22770924.023
  22770926.359    22770926.480                          46.500          40.500

 106187766.983 7                                  19899537.141    19899535.965
                                                        45.100

 115575664.386 8  89892191.811 7                  21590498.078    21590498.074
  21590502.160    21590502.086                          48.000          47.300

 107648350.617 8  83726509.307 8                  20159067.125    20159066.609
  20159068.270    20159068.328                          49.200          49.100

 106777428.043 7  83049126.333 7                  19988946.703    19988946.297
  19988946.922    19988948.625                          45.500          44.600

 125800186.957 6  97844588.681 6                  23566614.758    23566612.520
  23566618.469    23566618.930                          41.600          41.800

 19 10  7  0  2 30.0000000  0 18G01G03G10G11G14G16G18G22G25G26G31G32
                                R05R06R07R09R16R22
 119133070.655 7  92830963.800 7  88963006.765 8  22670265.984
  22670273.234    22670273.617    22670269.391          45.400          44.600
        48.100
 127112193.588 6  99048483.911 6  94921463.715 7  24188649.250
  24188655.707    24188655.324    24188653.809          39.900          41.600
        45.300
 119633270.976 7  93220729.033 7  89336533.872 7  22765448.945
  22765455.289    22765455.688    22765451.289          44.100          44.900
        47.500
 127601012.463 6  99429381.80443                  24281670.250
                  24281674.555                          39.900          20.900

 112065102.961 7  87323496.64346                  21325269.914
                  21325273.145                          46.400          38.600

 131322513.346 6 102329239.49642                  24989839.563
                  24989844.293                          37.100          16.900

 117148882.705 7  91284877.95145                  22292691.539
                  22292695.293                          44.100          31.600

 119817116.195 7  93364042.72245                  22800445.289
                  22800446.398                          45.400          34.700

 121614904.013 7  94764864.864 7  90816333.829 7  23142536.391
  23142542.992    23142542.734    23142540.691          44.100          42.100
        46.800
 119627270.479 7  93216084.555 7  89332082.775 7  22764309.000
  22764315.930    22764316.004    22764312.652          42.500          43.700
        47.600
 105477478.826 8  82190261.189 8                  20071681.367
  20071683.961    20071683.836                          51.200          51.000

 115191843.141 7  89759888.041 7  86019894.967 8  21920269.266
  21920275.215    21920275.070    21920271.359          47.900          46.600
        49.300
 121735103.839 7  94682870.018 6                  22773062.570    22773063.016
  22773065.875    22773065.594                          47.000          40.700

 106185890.767 7                                  19899185.383    19899184.098
                                                        45.300

 115562401.154 7  89881875.980 7                  21588021.398    21588020.867
  21588024.469    21588024.250                          47.800          46.000

 107634135.049 8  83715452.764 8                  20156404.953    20156404.656
  20156406.332    20156406.180                          49.300          49.400

 106787426.242 7  83056902.723 7                  19990818.453    19990817.973
  19990818.824    19990820.133                          45.400          44.900

 125809668.314 6  97851963.030 6                  23568390.516    23568388.703
  23568394.613    23568395.207                          40.600          41.100

 19 10  7  0  2 35.0000000  0 18G01G03G10G11G14G16G18G22G25G26G31G32
                                R05R06R07R09R16R22
 119133868.046 7  92831585.130 7  88963602.209 8  22670417.531
  22670424.465    22670425.352    22670421.121          45.000          44.800
        48.500
 127095500.008 6  99035475.917 7  94908997.717 7  24185471.852
  24185478.680    24185478.551    24185477.043          39.200          42.000
        45.300
 119647936.337 7  93232156.587 7  89347485.266 7  22768239.492
  22768246.230    22768246.520    22768242.074          44.700          45.800
        47.800
 127608660.528 6  99435341.32043                  24283125.250
                  24283130.141                          41.300          21.700

 112067313.246 7  87325218.94446                  21325690.555
                  21325693.680                          46.900          39.000

 131304595.900 6 102315277.81442                  24986429.344
                  24986434.230                          37.100          17.800

 117157677.541 7  91291731.07345                  22294365.000
                  22294369.145                          44.300          30.700

 119803505.089 7  93353436.67345                  22797855.281
                  22797856.168                          45.100          34.000

 121620901.592 7  94769538.300 7  90820812.559 7  23143676.875
  23143683.840    23143684.145    23143682.211          43.500          42.300
        46.300
 119611603.598 7  93203876.602 7  89320383.505 7  22761327.586
  22761334.844    22761334.871    22761331.207          42.100          43.600
        47.900
 105481184.337 8  82193148.602 8                  20072386.289
  20072389.039    20072388.953                          51.300          51.100

 115198578.627 8  89765136.462 7  86024924.716 8  21921551.086
  21921556.906    21921556.719    21921553.051          48.200          46.400
        49.200
 121746546.925 7  94691770.184 6                  22775203.117    22775203.293
  22775206.215    22775206.016                          45.900          40.700

 106184024.154 7                                  19898835.930    19898834.484
                                                        45.000

 115549138.612 7  89871560.658 7                  21585543.578    21585543.023
  21585547.180    21585546.582                          47.800          45.700

 107619935.891 8  83704408.985 8                  20153746.336    20153745.641
  20153747.551    20153747.117                          49.500          49.300

 106797443.744 7  83064694.121 7                  19992693.492    19992693.270
  19992694.934    19992695.527                          45.700          45.000

 125819162.871 6  97859347.692 6                  23570168.344    23570167.270
  23570173.891    23570173.547                          39.500          40.800

 19 10  7  0  2 40.0000000  0 18G01G03G10G11G14G16G18G22G25G26G31G32
                                R05R06R07R09R16R22
 119134680.721 7  92832218.396 7  88964209.074 7  22670573.000
  22670579.266    22670579.859    22670575.723          44.300          44.100
        47.900
 127078807.725 6  99022468.951 6  94896532.716 7  24182295.938
  24182302.648    24182302.215    24182300.676          38.700          41.700
        45.000
 119662610.059 7  93243590.646 7  89358442.922 8  22771031.813
  22771038.398    22771039.008    22771034.301          45.200          45.300
        48.400
 127616317.210 6  99441307.57343                  24284582.719
                  24284587.438                          40.400          21.100

 112069525.973 7  87326943.14646                  21326111.852
                  21326114.945                          46.200          38.600

 131286674.081 5 102301312.80342                  24983018.758
                  24983023.797                          34.800          16.900

 117166484.566 7  91298593.68944                  22296040.609
                  22296045.191                          44.300          29.700

 119789899.631 7  93342835.02745                  22795266.008
                  22795267.367                          45.100          33.500

 121626914.844 7  94774223.967 6  90825302.983 7  23144821.969
  23144828.730    23144828.195    23144826.422          43.600          41.700
        46.800
 119595941.202 7  93191672.136 7  89308687.566 8  22758346.844
  22758354.039    22758354.027    22758350.938          42.400          44.000
        48.000
 105484903.628 8  82196046.758 8                  20073094.383
  20073096.848    20073096.754                          51.200          50.800

 115205316.922 7  89770387.074 7  86029956.565 8  21922833.672
  21922839.207    21922839.016    21922835.258          47.600          46.800
        49.100
 121757998.002 7  94700676.560 6                  22777345.297    22777345.824
  22777347.984    22777348.219                          46.100          40.500

 106182166.635 7                                  19898488.328    19898486.539
                                                        45.300

 115535876.724 7  89861245.860 7                  21583066.289    21583065.762
  21583069.293    21583069.262                          47.500          45.800

 107605752.988 8  83693377.841 8                  20151090.078    20151089.746
  20151091.230    20151091.195                          49.400          49.300

 106807480.205 7  83072500.267 7                  19994572.609    19994572.008
  19994573.418    19994574.520                          45.400          44.900

 125828670.509 6  97866742.469 6                  23571950.398    23571948.219
  23571953.906    23571954.328                          40.900          40.500

 19 10  7  0  2 45.0000000  0 18G01G03G10G11G14G16G18G22G25G26G31G32
                                R05R06R07R09R16R22
 119135508.809 7  92832863.663 7  88964827.455 8  22670730.250
  22670736.316    22670737.496    22670733.324          43.600          44.300
        48.000
 127062116.885 6  99009463.098 6  94884068.782 7  24179119.969
  24179126.723    24179126.391    24179124.426          39.600          41.900
        45.200
 119677292.211 7  93255031.298 7  89369406.868 8  22773826.297
  22773832.387    22773832.855    22773828.375          45.300          45.000
        48.200
 127623982.608 6  99447280.60343                  24286041.422
                  24286045.914                          41.200          21.300

 112071741.201 7  87328669.31446                  21326533.234
                  21326536.461                          46.000          38.600

 131268748.047 5 102287344.53642                  24979608.031
                  24979612.813                          35.300          16.900

 117175303.806 7  91305465.81845                  22297719.117
                  22297723.215                          44.000          30.400

 119776299.911 7  93332237.84845                  22792678.398
                  22792679.547                          45.200          34.100

 121632943.823 7  94778921.869 6  90829805.142 7  23145969.281
  23145975.094    23145975.332    23145973.594          44.600          41.400
        46.600
 119580283.418 7  93179471.278 7  89296995.078 7  22755367.992
  22755374.418    22755374.477    22755371.441          42.800          43.900
        47.600
 105488636.767 8  82198955.703 8                  20073804.336
  20073807.203    20073807.063                          51.400          51.000

 115212058.104 8  89775639.938 7  86034990.553 8  21924116.281
  21924121.957    21924121.742    21924118.141          48.100          46.700
        49.100
 121769456.938 7  94709589.065 6                  22779489.422    22779489.145
  22779491.563    22779492.086                          46.000          40.200

 106180318.344 7                                  19898141.320    19898139.938
                                                        45.200

 115522615.551 7  89850931.613 7                  21580588.750    21580588.414
  21580592.895    21580592.016                          47.800          46.500

 107591586.428 8  83682359.428 8                  20148436.711    20148436.824
  20148438.152    20148438.086                          49.600          49.200

 106817535.862 7  83080321.336 7                  19996456.141    19996454.500
  19996455.797    19996456.969                          45.800          45.500

 125838191.081 7  97874147.417 6                  23573734.117    23573732.387
  23573735.602    23573736.887                          42.100          39.400

 19 10  7  0  2 50.0000000  0 18G01G03G10G11G14G16G18G22G25G26G31G32
                                R05R06R07R09R16R22
 119136352.256 7  92833520.879 7  88965457.293 8  22670890.992
  22670897.410    22670897.836    22670893.805          44.100          44.000
        48.800
 127045427.410 6  98996458.345 6  94871605.900 7  24175944.359
  24175951.234    24175950.391    24175948.441          38.200          41.700
        45.100
 119691982.803 7  93266478.508 7  89380377.102 8  22776621.305
  22776627.895    22776628.398    22776623.859          45.100          45.400
        48.100
 127631656.626 6  99453260.32343                  24287501.766
                  24287506.230                          41.600          21.300

 112073958.901 8  87330397.39346                  21326954.914
                  21326958.516                          48.500          38.900

 131250817.824 5 102273372.93243                  24976196.031
                  24976200.914                          34.200          18.300

 117184135.155 7  91312347.38345                  22299399.313
                  22299403.934                          43.800          30.300

 119762705.904 7  93321645.11645                  22790091.250
                  22790092.453                          45.000          34.500

 121638988.504 7  94783632.016 6  90834319.032 7  23147119.281
  23147125.953    23147125.211    23147123.980          44.500          41.200
        47.300
 119564630.187 6  93167273.967 7  89285305.993 7  22752388.750
  22752395.250    22752395.617    22752392.590          41.400          43.600
        47.600
 105492383.759 8  82201875.439 8                  20074517.484
  20074520.531    20074520.074                          50.700          50.900

 115218802.139 8  89780895.030 7  86040026.693 8  21925399.594
  21925405.484    21925405.098    21925401.461          49.100          47.000
        48.900
 121780923.719 7  94718507.692 6                  22781633.336    22781634.168
  22781636.664    22781637.039                          45.300          39.600

 106178479.715 7                                  19897796.719    19897795.688
                                                        45.800

 115509355.101 7  89840617.950 7                  21578111.609    21578111.051
  21578115.055    21578114.754                          47.600          46.400

 107577436.118 8  83671353.624 8                  20145787.703    20145786.609
  20145788.621    20145788.371                          49.300          49.200

 106827610.578 7  83088157.227 7                  19998341.719    19998340.363
  19998341.938    19998342.770                          45.800          45.200

 125847724.746 6  97881562.483 6                  23575519.656    23575518.457
  23575522.219    23575522.207                          41.400          39.400

 19 10  7  0  2 55.0000000  0 18G01G03G10G11G14G16G18G22G25G26G31G32
                                R05R06R07R09R16R22
 119137211.188 7  92834190.166 7  88966098.689 8  22671054.375
  22671060.570    22671061.348    22671057.277          44.600          44.600
        48.100
 127028739.486 6  98983454.779 6  94859144.159 7  24172768.422
  24172775.344    24172774.984    24172772.555          40.000          41.400
        44.900
 119706681.901 7  93277932.337 7  89391353.703 8  22779418.445
  22779425.156    22779425.625    22779421.035          45.400          45.500
        48.100
 127639339.388 6  99459246.91843                  24288963.523
                  24288968.473                          41.000          21.100

 112076179.250 7  87332127.53946                  21327378.086
                  21327380.965                          47.700          39.000

 131232883.536 5 102259398.23543                  24972783.305
                  24972788.328                          34.800          18.600

 117192978.867 7  91319238.58645                  22301082.563
                  22301087.000                          43.600          31.500

 119749117.767 7  93311056.96845                  22787504.969
                  22787506.840                          44.800          34.100

 121645048.974 7  94788354.478 6  90838844.712 7  23148272.281
  23148278.680    23148278.313    23148277.332          43.000          40.600
        47.300
 119548981.663 6  93155080.331 7  89273620.426 7  22749411.164
  22749417.297    22749417.527    22749414.656          41.000          43.400
        47.800
 105496144.707 8  82204806.050 8                  20075233.117
  20075236.063    20075235.707                          51.100          51.100

 115225549.137 8  89786152.441 7  86045065.038 8  21926683.477
  21926689.168    21926689.121    21926685.391          49.200          46.900
        49.000
 121792398.679 7  94727432.661 6                  22783780.742    22783780.813
  22783783.734    22783783.609                          45.100          40.000

 106176650.292 7                                  19897454.133    19897452.863
                                                        45.700

 115496095.333 7  89830304.793 7                  21575634.898    21575633.883
  21575637.793    21575637.660                          47.500          46.700

 107563302.337 8  83660360.684 8                  20143140.828    20143139.906
  20143142.066    20143141.551                          49.500          49.100

 106837704.477 7  83096008.045 7                  20000230.359    20000230.289
  20000232.184    20000232.492                          45.200          45.100

 125857271.492 6  97888987.760 6                  23577307.461    23577306.324
  23577308.805    23577310.750                          41.600          39.500

 19 10  7  0  3  0.0000000  0 18G01G03G10G11G14G16G18G22G25G26G31G32
                                R05R06R07R09R16R22
 119138085.453 7  92834871.420 7  88966751.552 8  22671220.836
  22671227.188    22671227.813    22671223.668          44.100          45.000
        48.100
 127012053.002 6  98970452.333 6  94846683.453 7  24169593.680
  24169599.941    24169599.492    24169597.098          40.200          40.900
        44.800
 119721389.427 7  93289392.746 7  89402336.584 8  22782217.367
  22782223.832    22782224.238    22782219.563          45.400          45.300
        48.200
 127647030.842 6  99465240.26943                  24290426.313
                  24290431.910                          39.800          21.100

 112078402.104 7  87333859.63546                  21327800.609
                  21327803.941                          47.900          39.000

 131214945.077 5 102245420.21843                  24969369.805
                  24969374.688                          35.000          19.000

 117201834.778 7  91326139.28745                  22302767.258
                  22302772.324                          43.900          30.800

 119735535.406 7  93300473.30745                  22784920.531
                  22784922.059                          44.800          34.100

 121651125.152 7  94793089.158 6  90843382.109 7  23149428.781
  23149434.824    23149434.305    23149433.512          43.500          40.500
        47.300
 119533337.771 7  93142890.277 7  89261938.296 7  22746433.891
  22746440.258    22746440.629    22746437.445          42.000          43.500
        47.400
 105499919.439 8  82207747.401 8                  20075951.727
  20075954.395    20075954.031                          51.200          51.000

 115232299.011 8  89791412.086 7  86050105.520 8  21927968.172
  21927973.688    21927973.410    21927969.797          48.800          46.800
        48.800
 121803881.439 7  94736363.720 6                  22785928.727    22785928.699
  22785931.230    22785931.445                          45.400          40.000

 106174830.207 7                                  19897113.305    19897111.680
                                                        45.300

 115482836.460 7  89819992.335 7                  21573158.023    21573157.273
  21573161.500    21573160.906                          47.300          45.800

 107549184.858 8  83649380.433 8                  20140496.461    20140496.188
  20140498.000    20140497.758                          49.100          48.800

 106847817.441 7  83103873.690 7                  20002124.023    20002123.406
  20002124.457    20002125.727                          45.500          44.500

 125866831.294 6  97896423.122 6                  23579098.938    23579097.793
  23579101.109    23579102.375                          40.900          39.900

 19 10  7  0  3  5.0000000  0 18G01G03G10G11G14G16G18G22G25G26G31G32
                                R05R06R07R09R16R22
 119138975.087 7  92835564.641 7  88967415.887 8  22671389.977
  22671396.441    22671397.207    22671392.879          43.900          44.900
        48.000
 126995367.968 6  98957450.998 6  94834223.854 7  24166417.961
  24166423.793    24166424.000    24166422.199          39.500          40.600
        44.600
 119736105.345 7  93300859.699 7  89413325.746 8  22785017.969
  22785024.289    22785024.648    22785020.055          45.400          45.400
        48.300
 127654730.954 6  99471240.33643                  24291893.281
                  24291896.902                          39.000          19.600

 112080627.452 7  87335593.68146                  21328224.477
                  21328227.379                          47.800          39.300

 131197002.418 6 102231438.95943                  24965955.781
                  24965960.328                          37.200          20.100

 117210702.765 7  91333049.42045                  22304455.164
                  22304459.855                          43.600          31.400

 119721958.835 7  93289894.17345                  22782337.172
                  22782338.641                          44.600          34.300

 121657217.045 7  94797836.079 6  90847931.257 7  23150588.188
  23150594.637    23150593.316    23150592.871          43.800          41.000
        47.700
 119517698.484 6  93130703.850 7  89250259.641 7  22743458.320
  22743464.145    22743464.676    22743461.520          41.600          43.200
        47.500
 105503708.020 8  82210699.548 8                  20076672.695
  20076675.102    20076674.973                          50.700          51.100

 115239051.771 8  89796673.984 7  86055148.174 8  21929252.805
  21929258.688    21929258.484    21929254.813          48.700          47.300
        49.300
 121815372.210 7  94745301.002 6                  22788078.648    22788078.371
  22788080.703    22788080.801                          45.500          39.300

 106173019.540 7                                  19896773.453    19896772.156
                                                        45.200

 115469578.243 7  89809680.396 7                  21570680.609    21570680.309
  21570684.527    21570683.930                          47.300          46.100

 107535083.825 8  83638412.971 8                  20137856.281    20137855.434
  20137857.234    20137857.156                          49.000          49.100

 106857949.474 7  83111754.161 7                  20004020.578    20004020.277
  20004021.172    20004022.305                          45.500          44.900

 125876404.069 7  97903868.577 6                  23580891.938    23580890.988
  23580896.734    23580896.355                          42.100          40.600

 19 10  7  0  3 10.0000000  0 18G01G03G10G11G14G16G18G22G25G26G31G32
                                R05R06R07R09R16R22
 119139880.023 7  92836269.783 7  88968091.652 7  22671561.625
  22671568.523    22671569.320    22671565.152          44.600          44.700
        47.800
 126978684.333 6  98944450.762 6  94821765.284 7  24163243.172
  24163249.809    24163249.051    24163247.477          38.400          41.100
        44.500
 119750829.596 7  93312333.136 7  89424321.129 7  22787819.914
  22787826.316    22787826.664    22787822.098          45.800          45.300
        47.900
 127662439.621 6  99477247.08643                  24293359.633
                  24293363.824                          38.700          19.600

 112082855.222 7  87337329.61646                  21328648.086
                  21328651.391                          47.000          39.400

 131179055.646 5 102217454.51742                  24962540.063
                  24962545.121                          35.100          17.800

 117219582.827 7  91339968.94445                  22306145.320
                  22306149.660                          44.700          30.800

 119708387.966 7  93279319.48345                  22779754.875
                  22779756.324                          45.300          34.700

 121663324.528 7  94802595.171 6  90852492.037 7  23151750.336
  23151756.605    23151755.570    23151754.887          44.900          40.100
        47.600
 119502063.788 6  93118520.967 7  89238584.387 7  22740482.852
  22740489.047    22740489.195    22740486.262          41.300          43.000
        47.300
 105507510.356 8  82213662.408 8                  20077395.992
  20077398.840    20077398.520                          50.300          51.200

 115245807.331 8  89801938.041 7  86060192.902 8  21930538.094
  21930544.043    21930543.984    21930540.430          48.200          47.500
        49.500
 121826870.923 7  94754244.441 6                  22790229.125    22790228.887
  22790232.977    22790232.000                          45.200          40.400

 106171218.140 7                                  19896436.297    19896434.855
                                                        45.400

 115456320.674 7  89799368.951 7                  21568204.656    21568203.730
  21568207.320    21568207.359                          46.600          46.100

 107520998.945 8  83627458.063 8                  20135218.359    20135217.645
  20135219.945    20135219.523                          48.900          49.100

 106868100.414 7  83119649.342 7                  20005921.523    20005920.148
  20005921.730    20005922.895                          45.300          45.100

 125885989.751 7  97911324.091 6                  23582688.664    23582687.543
  23582692.145    23582692.379                          43.000          41.800

 19 10  7  0  3 15.0000000  0 18G01G03G10G11G14G16G18G22G25G26G31G32
                                R05R06R07R09R16R22
 119140800.443 7  92836986.969 7  88968778.961 8  22671737.258
  22671743.465    22671744.520    22671740.152          44.400          44.900
        48.200
 126962002.231 6  98931451.734 6  94809307.888 7  24160069.211
  24160075.160    24160074.777    24160072.918          39.400          41.400
        45.000
 119765562.333 7  93323813.191 7  89435322.847 8  22790623.664
  22790629.977    22790630.117    22790625.477          45.500          46.100
        48.400
 127670157.023 6  99483260.63043                  24294827.242
                  24294832.270                          39.100          19.900

 112085085.579 7  87339067.55546                  21329072.766
                  21329075.750                          47.500          39.600

 131161104.815 5 102203466.83042                  24959123.984
                  24959128.453                          35.400          16.900

 117228475.107 7  91346897.98645                  22307836.539
                  22307841.766                          44.300          31.200

 119694823.079 7  93268749.44145                  22777173.539
                  22777174.902                          45.800          34.000

 121669447.819 7  94807366.548 6  90857064.614 7  23152915.648
  23152922.090    23152921.145    23152919.840          44.600          41.500
        46.800
 119486433.866 6  93106341.812 7  89226912.693 7  22737508.258
  22737515.027    22737514.730    22737512.012          41.300          42.400
        47.200
 105511326.603 8  82216636.105 8                  20078122.305
  20078124.988    20078124.703                          50.900          51.000

 115252565.863 8  89807204.439 7  86065239.860 8  21931824.633
  21931830.313    21931830.219    21931826.496          49.700          47.300
        48.700
 121838377.451 7  94763193.945 6                  22792382.141    22792381.492
  22792384.789    22792384.434                          44.600          39.900

 106169426.247 7                                  19896099.984    19896098.828
                                                        45.200

 115443063.920 7  89789058.131 7                  21565727.594    21565727.332
  21565731.762    21565731.086                          47.900          46.500

 107506930.627 8  83616516.041 8                  20132583.945    20132583.211
  20132584.703    20132584.949                          49.100          49.500

 106878270.506 7  83127559.426 7                  20007825.484    20007824.121
  20007825.922    20007826.582                          45.200          45.400

 125895588.380 7  97918789.672 7                  23584486.383    23584486.020
  23584490.789    23584490.598                          42.800          42.600

 19 10  7  0  3 20.0000000  0 18G01G03G10G11G14G16G18G22G25G26G31G32
                                R05R06R07R09R16R22
 119141736.434 7  92837716.329 7  88969477.908 8  22671915.188
  22671921.734    22671922.785    22671918.262          44.500          44.300
        48.200
 126945321.880 6  98918454.049 7  94796851.787 7  24156894.828
  24156900.957    24156901.047    24156899.293          39.400          42.100
        45.100
 119780303.735 7  93335299.998 7  89446331.029 7  22793428.922
  22793435.047    22793435.707    22793430.563          45.500          45.800
        47.900
 127677883.271 6  99489281.10743                  24296297.961
                  24296302.227                          38.300          19.600

 112087318.705 8  87340807.66546                  21329497.750
                  21329500.809                          48.400          38.700

 131143150.082 5 102189476.15742                  24955706.828
                  24955711.820                          34.300          15.600

 117237379.802 7  91353836.70545                  22309531.203
                  22309536.285                          44.500          31.300

 119681264.234 7  93258184.11545                  22774593.531
                  22774594.789                          45.500          35.100

 121675587.059 7  94812150.382 6  90861649.111 7  23154084.188
  23154090.551    23154089.391    23154088.152          44.700          41.500
        47.000
 119470808.863 7  93094166.478 7  89215244.694 7  22734534.813
  22734541.734    22734541.508    22734538.586          42.400          43.000
        47.200
 105515156.871 8  82219620.729 8                  20078851.203
  20078853.902    20078853.590                          51.100          51.200

 115259327.527 8  89812473.265 7  86070289.161 8  21933111.789
  21933117.309    21933117.023    21933113.148          49.800          46.800
        48.700
 121849892.343 7  94772150.003 6                  22794535.523    22794535.668
  22794538.813    22794538.688                          45.300          40.200

 106167644.004 7                                  19895766.250    19895764.773
                                                        45.100

 115429808.207 7  89778748.143 7                  21563251.781    21563250.902
  21563255.195    21563254.680                          47.400          46.500

 107492879.008 8  83605587.016 8                  20129952.430    20129951.715
  20129953.695    20129953.473                          49.500          49.500

 106888459.828 7  83135484.456 7                  20009732.500    20009731.887
  20009732.730    20009734.215                          45.100          45.800

 125905200.232 7  97926265.616 6                  23586286.781    23586286.809
  23586290.031    23586291.340                          43.500          41.000

 19 10  7  0  3 25.0000000  0 18G01G03G10G11G14G16G18G22G25G26G31G32
                                R05R06R07R09R16R22
 119142687.666 7  92838457.531 7  88970188.229 8  22672095.906
  22672102.895    22672103.668    22672099.234          43.000          44.700
        48.100
 126928642.892 6  98905457.452 7  94784396.717 7  24153720.664
  24153727.102    24153727.461    24153725.250          40.200          42.200
        45.200
 119795053.369 7  93346793.221 7  89457345.376 7  22796235.250
  22796242.227    22796242.242    22796237.297          45.400          45.500
        47.900
 127685618.015 6  99495308.09843                  24297769.430
                  24297773.859                          36.600          19.000

 112089554.210 7  87342549.62246                  21329922.875
                  21329926.180                          46.400          39.200

 131125191.084 5 102175482.08642                  24952289.234
                  24952293.707                          34.700          16.300

 117246296.463 7  91360784.73945                  22311228.750
                  22311233.070                          45.000          30.700

 119667711.100 7  93247623.23145                  22772014.414
                  22772015.805                          45.200          34.800

 121681741.839 7  94816946.325 6  90866245.217 7  23155254.594
  23155261.777    23155260.465    23155259.367          43.800          40.200
        47.000
 119455188.450 6  93081994.731 7  89203580.107 7  22731561.977
  22731569.203    22731569.168    22731566.059          41.500          43.700
        47.100
 105519000.778 8  82222615.984 8                  20079582.664
  20079585.480    20079585.203                          51.200          50.900

 115266091.974 8  89817744.255 7  86075340.533 8  21934398.320
  21934403.836    21934404.188    21934400.426          48.000          46.800
        49.100
 121861415.054 7  94781112.091 6                  22796692.195    22796690.965
  22796693.738    22796694.359                          45.000          39.000

 106165870.971 7                                  19895434.211    19895432.578
                                                        45.100

 115416553.155 7  89768438.667 7                  21560775.336    21560774.801
  21560778.898    21560778.449                          47.200          45.900

 107478843.668 8  83594670.652 8                  20127324.055    20127323.238
  20127325.242    20127325.230                          49.100          48.800

 106898668.021 7  83143424.166 7                  20011643.883    20011642.785
  20011643.883    20011644.953                          45.400          44.900

 125914824.903 7  97933751.468 6                  23588090.789    23588090.016
  23588093.977    23588094.020                          43.700          41.700

 19 10  7  0  3 30.0000000  0 18G01G03G10G11G14G16G18G22G25G26G31G32
                                R05R06R07R09R16R22
 119143654.158 7  92839210.641 7  88970909.963 7  22672280.633
  22672286.836    22672287.449    22672283.164          44.100          44.800
        47.900
 126911965.305 6  98892461.971 6  94771942.691 7  24150547.148
  24150553.625    24150554.043    24150551.496          40.300          41.700
        45.600
 119809811.315 7  93358292.914 7  89468365.908 7  22799043.594
  22799050.063    22799050.379    22799045.688          45.400          45.100
        47.800
 127693361.290 6  99501341.82543                  24299243.703
                  24299247.121                          36.900          19.000

 112091792.145 7  87344293.47546                  21330348.766
                  21330352.035                          47.800          39.200

 131107227.877 5 102161484.79142                  24948871.602
                  24948875.488                          35.100          16.300

 117255225.182 7  91367742.19845                  22312927.328
                  22312932.445                          45.000          31.500

 119654163.753 7  93237066.87045                  22769436.305
                  22769437.484                          45.500          34.600

 121687912.244 7  94821754.421 7  90870852.969 7  23156429.828
  23156436.227    23156435.129    23156433.703          44.200          42.200
        47.300
 119439572.640 6  93069826.580 7  89191918.957 7  22728591.273
  22728597.656    22728597.891    22728594.313          41.700          44.100
        47.000
 105522858.387 8  82225621.918 8                  20080316.656
  20080319.504    20080319.094                          50.300          50.700

 115272859.208 8  89823017.425 7  86080393.981 8  21935686.383
  21935691.906    21935691.910    21935688.082          48.800          46.800
        49.100
 121872945.564 7  94790080.277 6                  22798848.484    22798847.688
  22798851.266    22798851.551                          44.500          39.500

 106164107.339 7                                  19895103.539    19895102.027
                                                        45.200

 115403298.819 7  89758129.751 7                  21558299.602    21558298.762
  21558303.160    21558302.438                          46.800          45.700

 107464824.737 8  83583767.031 8                  20124698.344    20124698.098
  20124700.398    20124699.977                          49.300          49.400

 106908895.073 7  83151378.548 7                  20013557.859    20013557.234
  20013558.980    20013559.621                          45.400          45.000

 125924462.317 6  97941247.228 6                  23589894.609    23589894.980
  23589898.734    23589899.602                          41.900          41.600

 19 10  7  0  3 35.0000000  0 18G01G03G10G11G14G16G18G22G25G26G31G32
                                R05R06R07R09R16R22
 119144635.905 7  92839975.641 7  88971643.093 7  22672467.070
  22672473.699    22672474.305    22672469.922          45.900          45.100
        47.900
 126895289.218 6  98879467.594 6  94759489.765 7  24147373.836
  24147380.094    24147380.438    24147377.871          40.800          41.300
        45.600
 119824577.562 7  93369799.083 7  89479392.657 7  22801853.742
  22801860.250    22801860.414    22801855.570          45.300          45.800
        47.700
 127701112.955 6  99507382.04443                  24300718.438
                  24300722.477                          38.400          19.000

 112094032.497 7  87346039.20746                  21330775.414
                  21330778.340                          47.700          39.100

 131089260.518 5 102147484.27542                  24945451.547
                  24945456.441                          34.000          16.900

 117264165.880 7  91374708.96845                  22314628.250
                  22314633.828                          44.700          31.400

 119640622.223 7  93226515.02645                  22766859.703
                  22766860.586                          46.200          34.200

 121694098.231 7  94826574.674 7  90875472.393 7  23157606.648
  23157612.910    23157612.270    23157610.961          45.000          42.000
        47.100
 119423961.501 7  93057662.072 7  89180261.294 7  22725620.258
  22725627.406    22725627.316    22725623.617          42.300          44.600
        47.200
 105526729.697 8  82228638.526 8                  20081053.102
  20081056.023    20081055.973                          50.300          51.000

 115279629.256 8  89828292.786 7  86085449.545 8  21936974.609
  21936980.617    21936980.309    21936976.332          49.600          46.300
        48.600
 121884483.953 7  94799054.597 6                  22801006.391    22801005.645
  22801009.621    22801009.945                          43.900          39.700

 106162353.089 7                                  19894774.586    19894773.316
                                                        45.700

 115390045.183 7  89747821.356 7                  21555823.375    21555822.750
  21555826.840    21555826.520                          46.900          45.500

 107450822.137 8  83572876.135 8                  20122076.047    20122075.930
  20122077.629    20122077.645                          49.300          49.200

 106919141.088 7  83159347.667 7                  20015476.586    20015475.078
  20015476.699    20015477.688                          45.400          45.300

 125934112.584 6  97948752.951 6                  23591702.703    23591701.137
  23591706.754    23591707.402                          40.600          41.100

 19 10  7  0  3 40.0000000  0 18G01G03G10G11G14G16G18G22G25G26G31G32
                                R05R06R07R09R16R22
 119145633.071 7  92840752.659 7  88972387.719 8  22672656.469
  22672663.523    22672664.152    22672659.508          44.400          44.300
        48.000
 126878614.660 6  98866474.422 6  94747037.996 7  24144200.281
  24144207.188    24144206.785    24144204.402          39.800          41.700
        44.800
 119839352.223 7  93381311.805 7  89490425.682 7  22804665.125
  22804671.910    22804671.930    22804667.109          45.100          45.500
        47.900
 127708873.192 6  99513429.02143                  24302195.656
                  24302199.094                          39.000          19.900

 112096275.450 8  87347786.96046                  21331201.914
                  21331205.121                          48.000          39.300

 131071289.111 5 102133480.62842                  24942032.266
                  24942036.887                          34.600          16.900

 117273118.795 7  91381685.26445                  22316332.531
                  22316337.906                          44.900          31.700

 119627086.586 7  93215967.77945                  22764283.813
                  22764284.988                          45.900          34.000

 121700299.971 7  94831407.185 6  90880103.553 7  23158786.586
  23158792.750    23158792.852    23158791.125          45.000          41.700
        46.900
 119408355.161 7  93045501.276 7  89168607.211 7  22722650.313
  22722657.730    22722657.641    22722653.953          42.300          44.900
        47.000
 105530614.829 8  82231665.899 8                  20081792.453
  20081795.398    20081795.246                          50.500          50.800

 115286402.245 8  89833570.448 7  86090507.286 8  21938263.617
  21938269.262    21938268.871    21938265.180          48.500          47.300
        48.700
 121896030.392 7  94808035.162 6                  22803167.203    22803165.840
  22803170.367    22803169.945                          44.100          40.400

 106160608.219 7                                  19894447.664    19894446.363
                                                        45.200

 115376792.352 7  89737513.606 7                  21553347.211    21553346.918
  21553350.969    21553350.727                          46.900          46.000

 107436836.074 8  83561998.099 8                  20119456.828    20119456.629
  20119457.820    20119458.461                          49.200          49.200

 106929406.118 7  83167331.588 7                  20017397.750    20017396.836
  20017397.004    20017399.016                          45.000          45.400

 125943775.778 6  97956268.760 6                  23593512.906    23593511.188
  23593517.770    23593517.594                          40.800          40.700

 19 10  7  0  3 45.0000000  0 18G01G03G10G11G14G16G18G22G25G26G31G32
                                R05R06R07R09R16R22
 119146645.548 7  92841541.591 7  88973143.786 8  22672849.258
  22672856.102    22672856.766    22672852.285          43.200          44.600
        48.100
 126861941.586 6  98853482.438 6  94734587.342 7  24141027.844
  24141034.047    24141033.906    24141031.488          39.300          41.600
        45.400
 119854135.209 7  93392831.012 7  89501464.932 7  22807478.195
  22807484.797    22807484.918    22807480.172          45.300          45.500
        47.700
 127716641.947 6  99519482.58943                  24303674.047
                  24303677.211                          40.700          20.400

 112098520.890 7  87349536.66746                  21331629.000
                  21331632.250                          46.600          39.000

 131053313.598 5 102119473.74543                  24938611.844
                  24938616.609                          34.800          18.300

 117282083.711 7  91388670.91345                  22318037.969
                  22318043.586                          44.600          32.100

 119613556.813 7  93205425.10745                  22761709.516
                  22761710.441                          45.800          34.700

 121706517.349 7  94836251.915 6  90884746.394 7  23159969.430
  23159977.059    23159975.957    23159974.363          44.200          41.700
        46.900
 119392753.561 7  93033344.204 7  89156956.664 7  22719681.547
  22719688.500    22719689.016    22719685.000          42.900          45.000
        47.000
 105534513.678 8  82234703.971 8                  20082534.625
  20082537.453    20082537.043                          50.500          50.300

 115293178.095 7  89838850.333 7  86095567.187 8  21939552.922
  21939558.563    21939558.496    21939554.484          47.600          47.300
        48.800
 121907584.751 7  94817021.855 6                  22805328.086    22805327.484
  22805331.492    22805331.547                          43.900          40.900

 106158872.787 7                                  19894122.656    19894121.176
                                                        45.300

 115363540.254 7  89727206.431 7                  21550872.609    21550871.324
  21550875.344    21550875.121                          47.200          46.200

 107422866.507 8  83551132.875 8                  20116841.227    20116840.719
  20116842.410    20116842.449                          48.900          49.300

 106939690.039 7  83175330.205 7                  20019322.672    20019322.004
  20019322.691    20019324.316                          44.600          44.900

 125953451.749 6  97963794.518 6                  23595326.727    23595323.949
  23595329.715    23595330.363                          40.500          41.600

 19 10  7  0  3 50.0000000  0 18G01G03G10G11G14G16G18G22G25G26G31G32
                                R05R06R07R09R16R22
 119147673.431 7  92842342.546 7  88973911.360 8  22673045.266
  22673051.895    22673052.332    22673047.836          44.300          45.000
        48.100
 126845270.173 6  98840491.716 6  94722137.894 7  24137855.883
  24137861.641    24137861.484    24137859.207          41.000          41.800
        45.000
 119868926.657 7  93404356.815 7  89512510.472 7  22810292.281
  22810299.711    22810299.785    22810295.063          44.600          45.900
        47.900
 127724419.317 6  99525542.85243                  24305153.617
                  24305157.082                          39.900          19.900

 112100768.943 7  87351288.39846                  21332057.141
                  21332060.098                          47.300          38.900

 131035334.07615 102105463.73842                  24935190.617
                  24935195.453                          35.300          15.600

 117291060.767 7  91395666.01445                  22319746.305
                  22319751.797                          44.500          31.800

 119600033.019 7  93194887.09445                  22759135.461
                  22759136.953                          45.800          35.100

 121712750.460 7  94841108.874 6  90889401.001 7  23161155.602
  23161162.055    23161162.398    23161160.461          44.100          41.900
        47.000
 119377156.786 7  93021190.894 7  89145309.739 7  22716713.352
  22716720.879    22716721.094    22716717.012          42.500          45.200
        47.000
 105538426.352 8  82237752.808 8                  20083279.047
  20083281.859    20083281.609                          50.700          50.800

 115299956.909 8  89844132.533 7  86100629.283 8  21940842.477
  21940848.484    21940848.344    21940844.613          48.300          47.000
        49.500
 121919147.069 7  94826014.794 6                  22807491.273    22807490.320
  22807495.445    22807494.602                          43.700          40.900

 106157146.818 7                                  19893798.711    19893797.602
                                                        45.100

 115350289.143 7  89716900.030 7                  21548396.156    21548395.848
  21548400.559    21548399.621                          46.800          46.400

 107408913.486 8  83540280.535 8                  20114228.414    20114227.789
  20114229.945    20114229.465                          49.000          48.900

 106949993.009 7  83183343.632 7                  20021251.930    20021250.922
  20021251.371    20021253.105                          45.200          45.100

 125963140.648 6  97971330.318 7                  23597141.039    23597138.781
  23597145.004    23597145.570                          39.900          42.100

 19 10  7  0  3 55.0000000  0 18G01G03G10G11G14G16G18G22G25G26G31G32
                                R05R06R07R09R16R22
 119148716.671 7  92843155.448 7  88974690.393 7  22673243.141
  22673250.406    22673250.895    22673246.445          44.300          44.700
        47.700
 126828600.313 6  98827502.262 6  94709689.644 7  24134683.172
  24134689.691    24134689.695    24134687.137          39.400          41.700
        45.100
 119883726.482 7  93415889.151 7  89523562.288 8  22813109.586
  22813115.512    22813116.035    22813111.305          45.200          46.000
        48.000
 127732205.274 6  99531609.83543                  24306636.070
                  24306638.797                          41.100          21.100

 112103019.537 7  87353042.12046                  21332485.219
                  21332488.316                          47.700          39.200

 131017350.567 5 102091450.69243                  24931768.508
                  24931773.410                          35.900          18.300

 117300049.916 7  91402670.55645                  22321456.922
                  22321462.875                          44.100          32.300

 119586515.174 7  93184353.71645                  22756563.328
                  22756564.813                          45.300          34.400

 121718999.279 7  94845978.095 7  90894067.341 7  23162344.656
  23162351.734    23162351.543    23162349.582          44.600          42.700
        46.900
 119361564.860 7  93009041.338 7  89133666.412 7  22713746.484
  22713753.707    22713754.105    22713749.914          43.300          44.600
        47.600
 105542352.812 8  82240812.391 8                  20084026.258
  20084029.109    20084028.875                          50.700          51.000

 115306738.672 8  89849417.013 7  86105693.593 8  21942133.297
  21942138.859    21942138.891    21942135.227          48.600          46.300
        49.100
 121930717.460 7  94835013.981 6                  22809656.086    22809655.156
  22809659.324    22809659.191                          43.700          41.800

 106155430.530 7                                  19893478.000    19893476.059
                                                        44.400

 115337038.876 7  89706594.257 7                  21545921.391    21545920.871
  21545925.254    21545924.469                          47.700          46.600

 107394976.986 8  83529441.037 8                  20111618.563    20111617.781
  20111618.902    20111619.566                          49.500          48.700

 106960314.868 7  83191371.747 7                  20023184.430    20023182.855
  20023184.617    20023185.320                          45.200          45.200

 125972842.415 6  97978876.093 7                  23598958.359    23598956.449
  23598963.797    23598963.445                          39.500          42.300

 19 10  7  0  4  0.0000000  0 18G01G03G10G11G14G16G18G22G25G26G31G32
                                R05R06R07R09R16R22
 119149775.162 7  92843980.248 7  88975480.826 7  22673445.227
  22673452.000    22673452.402    22673447.922          44.800          44.700
        47.100
 126811931.962 6  98814513.917 6  94697242.480 7  24131511.453
  24131517.824    24131517.816    24131515.508          41.000          41.700
        44.700
 119898534.540 7  93427427.894 7  89534620.264 8  22815926.711
  22815933.574    22815933.938    22815929.090          45.000          45.600
        48.400
 127739999.650 6  99537683.38843                  24308119.102
                  24308122.270                          40.800          20.600

 112105272.545 8  87354797.72046                  21332914.461
                  21332917.039                          48.200          39.200

 130999362.993 5 102077434.41143                  24928345.164
                  24928350.750                          35.900          18.600

 117309051.010 7  91409684.39145                  22323170.242
                  22323175.676                          43.900          31.600

 119573003.124 7  93173824.85745                  22753991.727
                  22753993.723                          46.100          34.200

 121725263.697 7  94850859.445 7  90898745.307 7  23163537.039
  23163543.035    23163543.402    23163541.527          44.900          42.200
        46.800
 119345977.651 7  92996895.452 7  89122026.611 7  22710780.570
  22710787.551    22710787.992    22710783.930          42.800          45.000
        47.300
 105546292.920 8  82243882.606 8                  20084775.867
  20084778.926    20084778.629                          50.500          50.800

 115313523.237 8  89854703.693 7  86110759.990 8  21943424.008
  21943430.172    21943429.887    21943426.305          48.800          46.800
        49.200
 121942295.688 7  94844019.255 7                  22811821.453    22811820.746
  22811826.008    22811825.250                          43.800          42.200

 106153723.585 7                                  19893157.813    19893155.695
                                                        44.500

 115323789.289 7  89696289.013 7                  21543445.961    21543445.359
  21543449.492    21543449.133                          47.000          45.900

 107381056.959 8  83518614.359 8                  20109011.477    20109011.199
  20109012.402    20109012.836                          49.100          49.000

 106970655.563 7  83199414.517 7                  20025119.258    20025118.668
  20025119.836    20025121.199                          45.200          45.600

 125982556.960 6  97986431.817 7                  23600778.547    23600776.680
  23600783.469    23600783.617                          39.600          42.200

 19 10  7  0  4  5.0000000  0 18G01G03G10G11G14G16G18G22G25G26G31G32
                                R05R06R07R09R16R22
 119150849.108 7  92844817.092 7  88976282.807 8  22673649.016
  22673656.430    22673656.883    22673652.227          45.100          45.400
        48.000
 126795265.336 6  98801526.923 6  94684796.631 7  24128339.734
  24128345.992    24128346.176    24128344.012          40.700          41.300
        45.300
 119913351.086 7  93438973.254 7  89545684.556 8  22818746.680
  22818753.234    22818753.328    22818748.625          45.000          45.900
        48.100
 127747802.649 6  99543763.64343                  24309603.297
                  24309607.813                          41.000          21.500

 112107528.195 8  87356555.36246                  21333343.188
                  21333346.465                          48.500          39.000

 130981371.482 6 102063415.06042                  24924921.453
                  24924926.809                          37.200          17.800

 117318064.214 7  91416707.65645                  22324885.203
                  22324890.750                          43.700          31.900

 119559497.169 7  93163300.74545                  22751422.086
                  22751423.301                          45.500          34.700

 121731543.897 7  94855753.101 6  90903435.067 7  23164732.445
  23164738.398    23164738.145    23164736.488          44.700          41.500
        46.700
 119330395.395 7  92984753.435 7  89110390.526 7  22707815.625
  22707822.496    22707822.941    22707818.832          42.900          45.200
        47.200
 105550246.891 8  82246963.623 8                  20085528.523
  20085531.410    20085530.930                          50.300          50.900

 115320310.839 8  89859992.741 7  86115828.662 8  21944716.500
  21944721.656    21944721.438    21944717.863          48.200          46.700
        49.300
 121953882.005 7  94853030.835 7                  22813988.422    22813988.367
  22813993.199    22813992.762                          43.200          42.600

 106152026.291 7                                  19892839.570    19892837.953
                                                        45.100

 115310540.684 7  89685984.545 7                  21540971.836    21540970.707
  21540974.797    21540974.219                          47.300          45.900

 107367153.609 8  83507800.634 8                  20106408.000    20106407.320
  20106408.766    20106409.191                          49.100          49.300

 106981015.282 7  83207472.071 7                  20027059.188    20027058.234
  20027059.715    20027060.496                          45.000          44.900

 125992284.400 6  97993997.591 6                  23602600.953    23602598.910
  23602604.313    23602605.586                          40.600          40.700

 19 10  7  0  4 10.0000000  0 18G01G03G10G11G14G16G18G22G25G26G31G32
                                R05R06R07R09R16R22
 119151938.164 7  92845665.689 7  88977096.040 7  22673856.914
  22673863.230    22673864.020    22673859.352          45.000          45.300
        47.900
 126778600.012 6  98788541.003 6  94672351.783 7  24125167.891
  24125175.012    24125174.625    24125172.496          39.500          41.600
        44.900
 119928175.733 7  93450524.925 7  89556754.916 7  22821567.836
  22821574.191    22821574.457    22821569.848          45.100          45.500
        47.800
 127755613.856 6  99549850.28443                  24311089.555
                  24311095.012                          40.500          22.300

 112109786.130 8  87358314.80146                  21333772.820
                  21333775.766                          48.100          39.400

 130963375.772 5 102049392.39942                  24921496.891
                  24921501.957                          35.800          16.300

 117327089.210 7  91423740.11845                  22326602.500
                  22326608.254                          43.900          32.400

 119545996.913 7  93152781.06545                  22748853.422
                  22748854.355                          46.000          34.400

 121737839.508 7  94860658.781 6  90908136.340 7  23165930.031
  23165936.273    23165936.242    23165934.359          44.100          41.600
        46.500
 119314817.748 7  92972615.020 7  89098757.859 7  22704851.047
  22704858.344    22704858.574    22704854.531          42.600          45.500
        47.500
 105554214.350 8  82250055.146 8                  20086283.336
  20086286.301    20086286.000                          50.700          50.700

 115327101.107 8  89865283.851 7  86120899.315 8  21946008.273
  21946013.754    21946013.625    21946009.949          48.700          46.600
        48.600
 121965476.035 7  94862048.434 6                  22816158.500    22816157.105
  22816161.469    22816161.918                          42.700          41.600

 106150338.278 7                                  19892522.586    19892521.809
                                                        45.300

 115297292.754 7  89675680.605 7                  21538496.484    21538495.754
  21538499.207    21538499.453                          47.000          46.700

 107353266.568 8  83496999.616 8                  20103807.156    20103806.746
  20103808.590    20103808.590                          49.600          49.800

 106991393.602 7  83215544.113 7                  20029001.898    20029000.965
  20029001.883    20029003.375                          45.100          45.100

 126002024.322 6  98001573.086 6                  23604425.500    23604423.773
  23604428.852    23604429.629                          41.800          40.300

 19 10  7  0  4 15.0000000  0 18G01G03G10G11G14G16G18G22G25G26G31G32
                                R05R06R07R09R16R22
 119153042.794 7  92846526.433 7  88977920.922 7  22674066.781
  22674073.453    22674074.016    22674069.652          43.000          44.900
        47.500
 126761936.590 6  98775556.526 6  94659908.326 7  24121997.320
  24122003.762    24122003.180    24122001.367          40.400          40.800
        45.000
 119943008.965 7  93462083.293 7  89567831.693 7  22824390.438
  22824396.977    22824397.102    22824392.449          44.900          45.800
        47.600
 127763433.828 6  99555943.78043                  24312578.383
                  24312583.543                          40.800          21.700

 112112046.859 7  87360076.41246                  21334203.539
                  21334206.137                          47.700          39.300

 130945376.327 5 102035366.81742                  24918071.789
                  24918076.402                          33.300          16.300

 117336126.513 7  91430782.15745                  22328322.641
                  22328328.109                          44.600          31.900

 119532502.899 7  93142266.25245                  22746285.070
                  22746286.348                          46.300          35.000

 121744151.082 7  94865576.907 6  90912849.533 7  23167130.625
  23167137.480    23167137.270    23167135.359          44.200          41.300
        46.700
 119299245.232 7  92960480.589 7  89087129.027 7  22701887.641
  22701894.816    22701895.383    22701891.176          42.200          45.600
        47.800
 105558195.797 8  82253157.578 8                  20087041.164
  20087044.043    20087043.707                          50.300          50.800

 115333894.567 8  89870577.456 7  86125972.351 8  21947300.914
  21947306.184    21947306.293    21947302.578          48.300          46.400
        48.500
 121977078.354 7  94871072.426 7                  22818328.555    22818328.129
  22818332.949    22818332.746                          43.800          42.500

 106148660.029 7                                  19892208.313    19892207.336
                                                        45.000

 115284046.009 7  89665377.591 7                  21536022.688    21536021.035
  21536025.637    21536024.941                          47.100          46.200

 107339396.472 8  83486211.765 8                  20101210.125    20101209.094
  20101210.699    20101211.250                          49.100          49.300

 107001791.089 7  83223631.042 7                  20030948.406    20030947.344
  20030948.344    20030949.918                          45.300          44.900

 126011777.289 6  98009158.699 6                  23606252.836    23606250.941
  23606254.887    23606256.398                          41.300          39.000

 19 10  7  0  4 20.0000000  0 18G01G03G10G11G14G16G18G22G25G26G31G32
                                R05R06R07R09R16R22
 119154162.621 7  92847399.035 7  88978757.154 7  22674279.664
  22674286.777    22674287.156    22674282.699          42.700          44.600
        47.600
 126745274.636 6  98762573.167 6  94647465.954 7  24118827.188
  24118833.172    24118832.305    24118830.789          41.100          41.000
        44.900
 119957850.389 7  93473648.025 7  89578914.559 7  22827214.711
  22827221.137    22827221.402    22827216.570          44.100          45.400
        47.600
 127771262.112 6  99562043.71543                  24314067.430
                  24314073.563                          40.800          20.400

 112114309.951 7  87361839.86346                  21334633.883
                  21334636.957                          47.800          39.300

 130927372.803 5 102021338.13142                  24914646.313
                  24914650.297                          35.400          16.900

 117345175.584 7  91437833.39645                  22330043.984
                  22330049.988                          44.500          32.700

 119519014.714 7  93131755.97945                  22743717.969
                  22743719.828                          45.900          35.300

 121750478.145 7  94870507.070 6  90917574.301 7  23168335.094
  23168342.098    23168341.152    23168339.477          44.800          41.800
        46.800
 119283677.418 7  92948349.847 7  89075503.720 7  22698925.000
  22698932.621    22698932.934    22698928.766          42.900          45.500
        47.800
 105562190.791 8  82256270.558 8                  20087801.320
  20087803.988    20087803.895                          51.100          50.800

 115340690.790 8  89875873.216 7  86131047.457 8  21948594.273
  21948599.633    21948599.590    21948595.863          48.600          46.600
        48.700
 121988688.444 7  94880102.481 7                  22820500.547    22820499.645
  22820504.031    22820504.582                          43.500          42.200

 106146991.122 7                                  19891895.875    19891894.809
                                                        44.800

 115270800.001 7  89655075.145 7                  21533547.977    21533546.527
  21533551.352    21533550.402                          46.900          46.800

 107325542.793 8  83475436.683 8                  20098615.070    20098614.977
  20098617.121    20098616.863                          49.500          49.100

 107012207.241 7  83231732.515 7                  20032898.188    20032897.238
  20032898.285    20032899.883                          44.900          45.600

 126021542.859 6  98016754.124 6                  23608082.547    23608080.367
  23608084.563    23608085.539                          41.800          38.900

 19 10  7  0  4 25.0000000  0 18G01G03G10G11G14G16G18G22G25G26G31G32
                                R05R06R07R09R16R22
 119155297.680 7  92848283.482 7  88979604.761 7  22674496.141
  22674503.137    22674503.211    22674498.824          43.300          45.400
        47.700
 126728614.254 6  98749591.062 6  94635024.768 7  24115656.102
  24115662.262    24115662.203    24115660.379          40.700          41.100
        44.500
 119972700.071 7  93485219.222 7  89590003.598 7  22830040.500
  22830046.957    22830047.359    22830042.453          45.200          45.200
        47.700
 127779098.794 6  99568150.22443                  24315558.609
                  24315564.531                          38.400          21.300

 112116575.495 8  87363605.23046                  21335065.172
                  21335067.887                          48.000          39.200

 130909365.228 5 102007306.28242                  24911218.680
                  24911222.980                          32.600          16.900

 117354236.618 7  91444893.93445                  22331768.797
                  22331774.418                          43.700          32.100

 119505532.445 7  93121250.31945                  22741152.914
                  22741154.305                          45.900          34.800

 121756820.806 7  94875449.405 7  90922310.697 7  23169541.359
  23169548.332    23169548.199    23169546.434          44.700          42.100
        47.000
 119268114.453 7  92936222.854 7  89063882.033 7  22695963.383
  22695970.867    22695971.445    22695967.141          42.200          45.600
        47.800
 105566199.447 8  82259394.177 8                  20088564.313
  20088567.148    20088566.750                          50.900          50.300

 115347489.860 7  89881171.197 7  86136124.687 8  21949888.344
  21949893.672    21949893.445    21949889.594          47.900          47.300
        48.300
 122000306.490 7  94889138.759 7                  22822673.453    22822673.191
  22822678.266    22822678.070                          43.800          43.200

 106145331.737 7                                  19891584.805    19891583.355
                                                        45.000

 115257554.794 7  89644773.318 7                  21531072.953    21531072.273
  21531075.988    21531075.965                          47.000          45.600

 107311705.681 8  83464674.489 8                  20096024.234    20096023.715
  20096025.535    20096025.609                          49.400          49.100

 107022642.159 7  83239848.554 7                  20034851.688    20034850.488
  20034852.297    20034853.301                          44.400          44.900

 126031321.037 7  98024359.385 6                  23609912.977    23609912.250
  23609915.227    23609916.910                          42.100          38.300

 19 10  7  0  4 30.0000000  0 18G01G03G10G11G14G16G18G22G25G26G31G32
                                R05R06R07R09R16R22
 119156448.047 7  92849179.882 7  88980463.806 7  22674714.656
  22674721.543    22674722.105    22674717.602          43.700          45.100
        47.400
 126711955.492 6  98736610.199 6  94622584.786 7  24112486.313
  24112492.129    24112491.828    24112490.367          40.900          40.100
        44.600
 119987558.044 7  93496796.862 7  89601098.854 7  22832868.266
  22832874.598    22832874.738    22832869.758          44.900          45.600
        47.300
 127786943.900 6  99574263.28543                  24317051.453
                  24317057.281                          38.900          19.900

 112118843.565 8  87365372.56446                  21335496.453
                  21335499.652                          48.000          39.200

 130891353.722 5 101993271.41442                  24907792.695
                  24907795.641                          34.600          16.300

 117363309.605 7  91451963.79245                  22333495.000
                  22333500.613                          44.100          32.300

 119492056.166 7  93110749.33745                  22738588.398
                  22738590.043                          45.800          34.700

 121763179.111 7  94880403.931 6  90927058.787 7  23170752.523
  23170758.305    23170757.727    23170756.324          44.300          41.600
        46.500
 119252556.376 7  92924099.689 7  89052264.001 7  22693002.977
  22693010.031    22693010.859    22693006.676          42.600          45.100
        47.800
 105570221.775 8  82262528.478 8                  20089329.313
  20089332.262    20089332.152                          50.800          50.700

 115354291.848 8  89886471.452 7  86141204.092 8  21951182.523
  21951187.988    21951187.789    21951183.844          48.300          47.000
        48.600
 122011932.503 7  94898181.199 7                  22824848.828    22824848.875
  22824852.992    22824853.027                          44.000          43.200

 106143681.892 7                                  19891275.477    19891274.191
                                                        45.000

 115244310.544 7  89634472.238 7                  21528597.813    21528598.223
  21528601.945    21528601.785                          46.700          45.700

 107297885.156 8  83453925.203 8                  20093436.109    20093435.727
  20093437.551    20093437.492                          48.700          49.700

 107033095.922 7  83247979.248 7                  20036808.570    20036807.453
  20036809.105    20036810.242                          44.700          45.300

 126041111.975 7  98031974.566 6                  23611747.766    23611746.621
  23611749.688    23611750.988                          42.400          37.700

 19 10  7  0  4 35.0000000  0 18G01G03G10G11G14G16G18G22G25G26G31G32
                                R05R06R07R09R16R22
 119157613.696 7  92850088.175 7  88981334.254 7  22674937.000
  22674943.273    22674943.902    22674939.473          44.400          44.200
        47.500
 126695298.342 6  98723630.593 6  94610146.009 7  24109316.383
  24109323.004    24109322.258    24109320.773          40.500          41.300
        45.100
 120002424.322 7  93508380.960 7  89612200.278 7  22835696.500
  22835703.227    22835703.582    22835698.863          44.900          45.600
        47.900
 127794797.408 6  99580382.88443                  24318546.289
                  24318551.164                          38.900          19.600

 112121114.129 7  87367141.83846                  21335929.125
                  21335931.652                          47.700          39.400

 130873338.314 6 101979233.42743                  24904362.984
                  24904367.977                          36.100          19.300

 117372394.518 7  91459042.94045                  22335224.023
                  22335229.652                          45.100          32.600

 119478585.854 7  93100252.98845                  22736024.773
                  22736026.469                          45.600          35.500

 121769553.025 7  94885370.624 6  90931818.539 7  23171964.594
  23171971.684    23171970.527    23171969.148          43.700          41.100
        46.800
 119237003.185 7  92911980.331 7  89040649.611 8  22690043.383
  22690050.684    22690051.180    22690047.172          42.900          45.600
        48.100
 105574257.790 8  82265673.418 8                  20090097.484
  20090100.660    20090100.164                          50.500          50.400

 115361096.713 7  89891773.951 7  86146285.656 8  21952477.633
  21952482.980    21952482.879    21952478.816          47.600          46.800
        48.300
 122023566.387 7  94907229.776 7                  22827025.164    22827025.082
  22827029.539    22827029.551                          44.600          42.100

 106142041.625 7                                  19890967.977    19890966.738
                                                        44.600

 115231066.983 7  89624171.690 7                  21526125.492    21526124.359
  21526127.793    21526127.746                          47.200          45.400

 107284081.265 8  83443188.839 8                  20090851.406    20090850.633
  20090852.293    20090852.422                          49.300          49.600

 107043568.465 7  83256124.559 7                  20038769.031    20038768.020
  20038768.691    20038770.738                          45.000          45.200

 126050915.542 7  98039599.560 6                  23613584.289    23613583.742
  23613586.977    23613587.109                          42.700          38.700

 19 10  7  0  4 40.0000000  0 18G01G03G10G11G14G16G18G22G25G26G31G32
                                R05R06R07R09R16R22
 119158794.653 7  92851008.403 7  88982216.143 7  22675161.695
  22675168.430    22675168.633    22675164.266          43.900          44.500
        47.900
 126678642.859 6  98710652.305 6  94597708.475 7  24106146.805
  24106153.355    24106153.152    24106151.266          41.200          41.000
        45.100
 120017298.871 7  93519971.518 7  89623307.907 7  22838527.016
  22838533.492    22838534.184    22838529.379          44.500          45.300
        47.300
 127802659.324 6  99586509.02343                  24320042.492
                  24320047.008                          39.900          20.100

 112123387.188 8  87368913.06446                  21336361.047
                  21336364.227                          48.500          39.400

 130855318.982 6 101965192.39043                  24900934.625
                  24900939.340                          37.100          19.600

 117381491.353 7  91466131.39445                  22336955.156
                  22336960.570                          45.100          32.700

 119465121.552 7  93089761.33745                  22733462.742
                  22733464.383                          45.000          34.800

 121775942.575 7  94890349.514 6  90936589.960 7  23173181.172
  23173187.469    23173186.313    23173185.008          43.100          41.400
        46.600
 119221454.950 7  92899864.813 7  89029038.910 8  22687084.305
  22687092.078    22687092.480    22687088.457          42.600          45.300
        48.100
 105578307.497 8  82268829.040 8                  20090868.172
  20090871.008    20090870.945                          50.900          51.000

 115367904.496 7  89897078.724 7  86151369.385 8  21953772.992
  21953778.250    21953778.191    21953774.273          47.200          47.200
        48.500
 122035208.280 7  94916284.583 7                  22829203.484    22829202.691
  22829207.453    22829207.496                          44.500          42.700

 106140410.903 7                                  19890663.078    19890661.426
                                                        45.200

 115217824.436 8  89613871.933 7                  21523651.195    21523650.273
  21523654.184    21523653.914                          48.000          45.800

 107270294.046 8  83432465.463 8                  20088268.680    20088268.613
  20088270.805    20088270.637                          48.900          49.900

 107054059.728 7  83264284.442 7                  20040733.211    20040732.070
  20040733.887    20040734.617                          45.100          44.900

 126060731.800 7  98047234.446 6                  23615423.313    23615422.898
  23615425.703    23615425.875                          43.600          38.900

 19 10  7  0  4 45.0000000  0 18G01G03G10G11G14G16G18G22G25G26G31G32
                                R05R06R07R09R16R22
 119159991.049 7  92851940.641 7  88983109.547 7  22675389.031
  22675395.855    22675396.363    22675391.742          44.100          44.500
        47.600
 126661989.172 6  98697675.424 6  94585272.304 7  24102978.422
  24102984.625    24102984.625    24102982.324          41.500          41.200
        44.300
 120032181.874 7  93531568.660 7  89634421.831 7  22841359.688
  22841365.906    22841366.492    22841361.578          45.100          44.600
        47.900
 127810529.735 6  99592641.79343                  24321539.633
                  24321544.668                          40.400          19.900

 112125662.962 7  87370686.39846                  21336794.258
                  21336797.199                          46.300          38.800

 130837295.963 6 101951148.46643                  24897504.984
                  24897509.609                          38.300          18.600

 117390600.303 7  91473229.26245                  22338688.289
                  22338693.699                          45.400          32.500

 119451663.461 7  93079274.52045                  22730901.914
                  22730903.297                          45.200          35.400

 121782347.900 7  94895340.691 6  90941373.167 7  23174399.453
  23174405.996    23174405.305    23174404.020          42.700          41.700
        46.800
 119205911.778 7  92887753.271 7  89017432.005 8  22684127.102
  22684134.176    22684134.414    22684130.723          42.000          45.300
        48.000
 105582371.037 8  82271995.429 8                  20091641.094
  20091644.313    20091644.008                          51.100          50.800

 115374715.356 7  89902385.863 7  86156455.414 8  21955069.117
  21955074.355    21955074.332    21955070.457          47.100          47.100
        48.800
 122046858.308 7  94925345.695 7                  22831382.875    22831382.715
  22831386.750    22831386.945                          44.500          42.800

 106138789.845 7                                  19890359.148    19890357.426
                                                        44.500

 115204583.057 7  89603573.071 7                  21521177.422    21521176.703
  21521181.496    21521180.344                          47.200          45.800

 107256523.646 8  83421755.142 8                  20085690.188    20085690.039
  20085691.777    20085691.918                          49.200          49.300

 107064570.010 7  83272459.123 7                  20042700.570    20042699.563
  20042700.336    20042702.078                          44.600          45.800

 126070560.856 7  98054879.265 6                  23617265.727    23617264.242
  23617266.762    23617267.320                          43.200          39.400

 19 10  7  0  4 50.0000000  0 18G01G03G10G11G14G16G18G22G25G26G31G32
                                R05R06R07R09R16R22
 119161202.591 7  92852884.703 7  88984014.258 8  22675619.500
  22675626.598    22675626.520    22675622.309          44.200          45.000
        48.000
 126645337.011 6  98684699.728 6  94572837.241 7  24099809.352
  24099815.691    24099815.926    24099813.441          41.700          41.400
        44.900
 120047073.004 7  93543172.135 7  89645541.820 8  22844193.070
  22844199.621    22844199.895    22844195.156          45.500          45.400
        48.000
 127818408.376 6  99598780.97943                  24323039.625
                  24323043.891                          39.700          20.400

 112127941.083 7  87372461.55746                  21337227.477
                  21337230.613                          47.800          38.700

 130819268.910 5 101937101.40543                  24894074.000
                  24894078.836                          35.900          18.300

 117399720.902 7  91480336.22345                  22340424.023
                  22340429.359                          44.900          32.600

 119438211.211 7  93068792.25245                  22728341.969
                  22728343.574                          46.400          35.700

 121788768.729 7  94900343.908 7  90946167.934 7  23175621.695
  23175628.145    23175626.891    23175626.125          42.600          42.700
        46.800
 119190373.430 7  92875645.463 7  89005828.699 8  22681170.195
  22681177.094    22681177.516    22681173.941          42.400          45.000
        48.000
 105586448.091 8  82275172.359 8                  20092417.234
  20092420.223    20092419.938                          50.600          51.100

 115381528.969 8  89907695.186 7  86161543.507 8  21956365.570
  21956371.086    21956370.984    21956366.984          48.000          46.900
        48.100
 122058516.135 7  94934412.891 7                  22833564.680    22833563.117
  22833567.488    22833567.824                          45.700          43.100

 106137178.309 7                                  19890057.500    19890055.492
                                                        45.800

 115191342.368 7  89593274.780 7                  21518704.719    21518703.027
  21518707.324    21518706.699                          47.600          45.600

 107242769.734 8  83411057.673 8                  20083114.719    20083114.344
  20083116.523    20083116.156                          49.300          49.700

 107075098.767 7  83280648.149 7                  20044671.266    20044670.574
  20044671.723    20044673.219                          44.200          45.400

 126080402.373 7  98062533.781 6                  23619107.984    23619107.746
  23619110.711    23619111.113                          42.600          39.400

 19 10  7  0  4 55.0000000  0 18G01G03G10G11G14G16G18G22G25G26G31G32
                                R05R06R07R09R16R22
 119162429.426 7  92853840.666 7  88984930.400 7  22675852.430
  22675859.895    22675860.313    22675855.766          44.900          44.700
        47.800
 126628686.524 6  98671725.339 6  94560403.460 7  24096640.742
  24096646.664    24096647.250    24096644.957          40.800          40.500
        44.300
 120061972.387 7  93554782.051 7  89656667.996 7  22847028.109
  22847035.125    22847035.457    22847030.195          45.000          45.800
        47.800
 127826295.421 6  99604926.72343                  24324540.250
                  24324544.332                          40.500          20.900

 112130221.772 8  87374238.72946                  21337661.766
                  21337664.777                          48.400          39.200

 130801237.873 5 101923051.25742                  24890644.180
                  24890647.246                          35.000          16.900

 117408853.491 7  91487452.52745                  22342161.984
                  22342167.293                          44.900          33.100

 119424765.036 7  93058314.71746                  22725783.195
                  22725785.102                          46.100          36.000

 121795205.171 7  94905359.337 7  90950974.372 7  23176846.328
  23176852.930    23176852.141    23176850.855          43.600          42.400
        47.000
 119174840.046 7  92863541.522 7  88994229.108 8  22678213.945
  22678221.266    22678221.633    22678217.965          42.000          45.200
        48.100
 105590538.797 8  82278359.922 8                  20093195.758
  20093198.641    20093198.262                          50.300          51.300

 115388345.492 7  89913006.755 7  86166633.771 8  21957662.523
  21957667.930    21957667.867    21957664.059          47.800          47.200
        48.800
 122070182.005 7  94943486.340 7                  22835746.211    22835746.063
  22835749.691    22835750.242                          45.800          43.400

 106135576.377 7                                  19889756.531    19889755.063
                                                        44.700

 115178102.653 7  89582977.218 7                  21516231.031    21516230.320
  21516234.320    21516233.508                          47.500          45.400

 107229032.541 8  83400373.181 8                  20080542.453    20080541.820
  20080543.480    20080543.668                          49.300          49.800

 107085646.308 7  83288851.790 7                  20046645.555    20046645.184
  20046646.348    20046647.648                          44.900          44.900

 126090256.521 6  98070198.136 6                  23620954.820    23620953.500
  23620957.320    23620957.246                          41.800          40.600

 19 10  7  0  5  0.0000000  0 18G01G03G10G11G14G16G18G22G25G26G31G32
                                R05R06R07R09R16R22
 119163671.566 7  92854808.579 7  88985857.968 7  22676089.141
  22676096.219    22676096.633    22676092.191          44.300          44.500
        47.200
 126612037.769 6  98658752.247 6  94547970.941 7  24093473.039
  24093478.910    24093478.102    24093476.703          41.500          40.000
        44.400
 120076880.069 7  93566398.420 7  89667800.355 8  22849865.164
  22849871.676    22849872.352    22849867.098          44.600          45.800
        48.000
 127834190.854 6  99611079.01243                  24326042.328
                  24326046.816                          39.900          19.900

 112132505.008 8  87376017.88246                  21338096.313
                  21338099.191                          48.100          39.200

 130783202.978 5 101908998.10742                  24887211.977
                  24887215.117                          35.600          14.800

 117417997.997 7  91494578.12345                  22343902.086
                  22343907.297                          44.300          32.600

 119411324.894 7  93047841.88645                  22723225.984
                  22723227.277                          46.000          35.400

 121801657.253 7  94910386.933 7  90955792.498 7  23178073.641
  23178080.633    23178079.910    23178078.789          43.900          42.200
        46.800
 119159311.672 7  92851441.507 7  88982633.246 7  22675259.156
  22675266.820    22675266.766    22675262.730          42.100          45.200
        47.700
 105594643.139 8  82281558.109 8                  20093976.648
  20093979.660    20093979.320                          51.200          51.000

 115395164.958 8  89918320.622 7  86171726.232 8  21958960.867
  21958965.848    21958965.652    21958961.730          48.100          46.800
        48.800
 122081855.708 7  94952565.898 7                  22837929.539    22837929.891
  22837933.449    22837933.801                          45.800          43.400

 106133983.963 7                                  19889458.555    19889456.746
                                                        44.800

 115164863.881 7  89572680.384 7                  21513757.617    21513756.926
  21513760.691    21513760.352                          47.300          45.300

 107215312.056 8  83389701.705 8                  20077972.945    20077972.434
  20077974.598    20077974.262                          49.300          49.500

 107096212.575 7  83297069.997 7                  20048624.430    20048623.180
  20048624.879    20048625.609                          45.500          45.600

 126100123.339 6  98077872.322 6                  23622802.508    23622801.977
  23622804.352    23622806.027                          41.800          39.700

 19 10  7  0  5  5.0000000  0 18G01G03G10G11G14G16G18G22G25G26G31G32
                                R05R06R07R09R16R22
 119164928.908 7  92855788.312 7  88986796.889 7  22676329.000
  22676335.402    22676335.883    22676331.449          45.100          44.600
        47.600
 126595390.634 6  98645780.462 6  94535539.641 7  24090304.727
  24090310.648    24090309.770    24090308.992          40.700          40.100
        44.300
 120091795.967 7  93578021.200 7  89678938.838 8  22852703.438
  22852709.836    22852710.578    22852705.543          44.800          45.100
        48.200
 127842094.617 6  99617237.78143                  24327546.422
                  24327550.488                          39.000          19.600

 112134790.703 8  87377798.94546                  21338531.148
                  21338534.055                          48.700          38.700

 130765164.184 5 101894941.88842                  24883778.148
                  24883782.023                          34.300          16.300

 117427154.242 7  91501712.84745                  22345644.430
                  22345649.863                          45.000          32.900

 119397890.781 7  93037373.74245                  22720669.164
                  22720670.902                          46.700          35.100

 121808124.874 7  94915426.655 6  90960622.234 7  23179304.547
  23179311.531    23179310.965    23179309.570          44.100          41.700
        47.000
 119143788.239 7  92839345.329 7  88971041.085 8  22672304.805
  22672312.398    22672312.473    22672308.676          42.300          45.100
        48.000
 105598761.070 8  82284766.892 8                  20094760.516
  20094763.543    20094763.039                          50.600          50.600

 115401987.306 8  89923636.724 7  86176820.835 8  21960258.398
  21960264.332    21960263.801    21960260.051          48.400          46.000
        48.300
 122093537.356 7  94961651.619 7                  22840115.117    22840115.195
  22840117.793    22840119.297                          46.000          43.200

 106132401.261 7                                  19889161.242    19889160.344
                                                        45.000

 115151626.016 7  89562384.278 7                  21511285.125    21511284.410
  21511287.820    21511287.449                          47.400          45.100

 107201608.200 8  83379043.157 8                  20075406.617    20075406.023
  20075408.039    20075408.031                          49.600          49.900

 107106797.446 7  83305302.687 7                  20050605.797    20050604.531
  20050606.012    20050607.234                          45.400          45.000

 126110002.656 6  98085556.210 6                  23624652.828    23624652.379
  23624656.211    23624656.816                          41.500          40.200

 19 10  7  0  5 10.0000000  0 18G01G03G10G11G14G16G18G22G25G26G31G32
                                R05R06R07R09R16R22
 119166201.572 7  92856779.995 7  88987747.251 7  22676570.508
  22676577.652    22676578.016    22676573.602          43.600          44.600
        47.300
 126578745.251 6  98632810.042 6  94523109.664 7  24087137.188
  24087143.145    24087142.563    24087141.289          40.100          41.100
        44.900
 120106720.139 7  93589650.423 7  89690083.520 7  22855543.336
  22855550.219    22855550.504    22855545.648          44.900          45.600
        47.800
 127850006.674 6  99623403.01143                  24329052.633
                  24329055.801                          39.900          19.600

 112137078.923 8  87379581.97946                  21338966.570
                  21338969.523                          48.500          39.100

 130747121.564 5 101880882.74542                  24880345.453
                  24880348.633                          35.900          16.300

 117436322.429 7  91508856.89445                  22347388.883
                  22347394.520                          45.700          33.200

 119384462.778 7  93026910.36146                  22718113.898
                  22718115.652                          45.600          36.000

 121814608.167 7  94920478.562 7  90965463.640 7  23180538.883
  23180545.289    23180545.023    23180543.367          44.100          42.400
        46.900
 119128269.871 7  92827253.099 7  88959452.695 8  22669351.992
  22669358.832    22669359.191    22669355.754          42.200          44.700
        48.300
 105602892.674 8  82287986.320 8                  20095546.883
  20095549.438    20095549.262                          51.100          50.500

 115408812.589 8  89928955.138 7  86181917.643 8  21961557.602
  21961562.984    21961562.453    21961558.719          48.100          46.300
        48.300
 122105227.080 7  94970743.602 7                  22842301.992    22842302.039
  22842305.879    22842305.914                          46.500          43.600

 106130828.160 7                                  19888867.586    19888865.270
                                                        44.800

 115138389.225 7  89552088.991 7                  21508811.281    21508811.250
  21508814.906    21508814.668                          47.200          45.800

 107187921.182 8  83368397.692 8                  20072843.531    20072842.969
  20072845.121    20072844.758                          49.300          50.000

 107117401.122 7  83313549.989 7                  20052590.555    20052589.605
  20052591.164    20052592.227                          45.200          45.500

 126119894.598 7  98093249.936 6                  23626507.328    23626505.586
  23626510.617    23626510.285                          42.100          41.600

 19 10  7  0  5 15.0000000  0 18G01G03G10G11G14G16G18G22G25G26G31G32
                                R05R06R07R09R16R22
 119167489.452 7  92857783.535 7  88988708.970 7  22676816.352
  22676822.906    22676823.203    22676818.824          43.800          44.900
        47.200
 126562101.494 6  98619840.923 7  94510680.917 7  24083969.922
  24083976.992    24083975.824    24083974.137          41.100          42.100
        44.900
 120121652.491 7  93601286.023 7  89701234.308 7  22858385.078
  22858391.648    22858392.086    22858387.141          46.300          45.500
        47.500
 127857926.983 6  99629574.66943                  24330559.508
                  24330562.699                          40.300          20.600

 112139369.610 7  87381366.93746                  21339402.547
                  21339405.242                          47.900          38.800

 130729075.060 5 101866820.55943                  24876911.406
                  24876914.777                          35.800          18.600

 117445502.450 7  91516010.15345                  22349135.953
                  22349141.332                          45.400          32.700

 119371040.771 7  93016451.68046                  22715559.914
                  22715561.535                          46.300          36.100

 121821106.991 7  94925542.605 7  90970316.653 7  23181775.758
  23181782.527    23181781.871    23181780.090          44.200          42.500
        47.000
 119112756.453 7  92815164.721 7  88947868.006 7  22666400.086
  22666406.551    22666407.105    22666403.598          42.000          44.500
        47.600
 105607037.799 8  82291216.299 8                  20096335.188
  20096338.391    20096338.063                          51.200          51.000

 115415640.735 7  89934275.775 7  86187016.582 8  21962856.500
  21962862.234    21962861.852    21962857.945          47.200          46.400
        48.500
 122116924.611 7  94979841.710 7                  22844489.914    22844489.957
  22844495.184    22844494.137                          46.400          43.100

 106129264.570 7                                  19888574.250    19888572.441
                                                        45.100

 115125153.295 7  89541794.394 7                  21506339.336    21506338.824
  21506342.074    21506341.980                          47.500          45.000

 107174250.787 8  83357765.176 8                  20070283.633    20070282.824
  20070284.555    20070284.926                          48.600          50.200

 107128023.306 7  83321811.693 7                  20054578.945    20054578.121
  20054579.480    20054580.684                          45.100          45.100

 126129798.999 6  98100953.361 6                  23628362.469    23628361.383
  23628366.016    23628366.043                          41.900          40.800

 19 10  7  0  5 20.0000000  0 18G01G03G10G11G14G16G18G22G25G26G31G32
                                R05R06R07R09R16R22
 119168792.613 7  92858798.979 7  88989682.110 7  22677063.984
  22677070.930    22677071.066    22677066.813          43.800          44.800
        47.600
 126545459.571 6  98606873.174 6  94498253.489 7  24080802.781
  24080809.840    24080809.309    24080807.492          41.300          41.700
        44.700
 120136593.123 7  93612928.066 7  89712391.261 8  22861227.969
  22861234.656    22861235.145    22861230.117          45.000          45.400
        48.100
 127865855.591 6  99635752.84543                  24332068.313
                  24332071.250                          41.700          20.600

 112141662.844 8  87383153.88446                  21339838.938
                  21339841.688                          48.000          39.000

 130711024.882 6 101852755.50143                  24873476.461
                  24873480.367                          38.700          20.400

 117454694.324 7  91523172.65745                  22350885.063
                  22350890.527                          46.400          33.300

 119357624.896 7  93005997.75645                  22713007.195
                  22713008.621                          46.800          35.500

 121827621.456 7  94930618.811 7  90975181.362 7  23183014.734
  23183021.418    23183021.586    23183019.703          42.700          42.300
        46.500
 119097248.126 6  92803080.303 7  88936287.111 7  22663448.289
  22663455.801    22663455.883    22663452.406          41.800          44.800
        47.600
 105611196.597 8  82294456.925 8                  20097126.539
  20097129.859    20097129.465                          50.200          50.900

 115422471.852 7  89939598.721 7  86192117.743 8  21964156.969
  21964162.195    21964161.602    21964157.926          46.300          46.600
        48.400
 122128630.206 7  94988946.050 7                  22846679.703    22846679.813
  22846683.773    22846683.891                          46.000          43.200

 106127710.660 7                                  19888282.336    19888281.484
                                                        45.100

 115111918.416 7  89531500.601 7                  21503866.438    21503866.168
  21503869.781    21503869.570                          47.300          45.200

 107160597.190 8  83347145.721 8                  20067726.922    20067725.988
  20067728.070    20067727.844                          48.900          50.000

 107138664.259 7  83330087.978 7                  20056571.188    20056570.352
  20056571.391    20056572.770                          44.700          45.100

 126139715.962 6  98108666.559 6                  23630219.313    23630218.633
  23630223.777    23630223.898                          41.400          41.900

 19 10  7  0  5 25.0000000  0 18G01G03G10G11G14G16G18G22G25G26G31G32
                                R05R06R07R09R16R22
 119170111.156 7  92859826.426 7  88990666.750 7  22677314.664
  22677321.781    22677321.984    22677317.707          43.900          44.600
        47.600
 126528819.435 6  98593906.897 6  94485827.447 7  24077636.516
  24077642.969    24077642.863    24077640.781          41.100          40.500
        44.900
 120151542.094 7  93624576.633 7  89723554.454 7  22864072.695
  22864079.211    22864079.855    22864074.805          45.300          45.300
        47.600
 127873792.657 6  99641937.56043                  24333578.516
                  24333582.012                          41.100          20.400

 112143958.722 7  87384942.87946                  21340275.414
                  21340278.609                          47.300          39.300

 130692971.057 6 101838687.59343                  24870041.234
                  24870045.621                          37.800          19.600

 117463898.136 7  91530344.45745                  22352636.445
                  22352642.141                          46.000          33.700

 119344215.265 7  92995548.70245                  22710455.250
                  22710456.844                          46.600          35.900

 121834151.655 7  94935707.259 7  90980057.796 7  23184257.375
  23184263.707    23184264.191    23184262.414          42.600          42.100
        47.100
 119081744.979 7  92790999.935 7  88924710.079 7  22660498.313
  22660505.539    22660505.930    22660502.168          42.100          44.400
        47.800
 105615369.133 8  82297708.256 8                  20097920.883
  20097923.746    20097923.387                          50.200          51.300

 115429306.000 7  89944924.024 7  86197221.157 7  21965457.227
  21965462.637    21965462.012    21965458.316          46.700          46.600
        47.800
 122140343.955 7  94998056.730 7                  22848870.320    22848871.035
  22848875.602    22848875.313                          45.200          43.800

 106126166.596 7                                  19887992.859    19887992.090
                                                        45.100

 115098684.604 7  89521207.633 7                  21501394.906    21501393.926
  21501398.043    21501397.379                          47.000          45.000

 107146960.556 8  83336539.461 8                  20065173.109    20065172.219
  20065174.641    20065174.063                          49.300          49.900

 107149323.894 7  83338378.819 7                  20058566.602    20058565.496
  20058567.004    20058568.281                          44.600          44.900

 126149645.562 6  98116389.562 7                  23632078.773    23632078.164
  23632083.844    23632084.383                          40.300          42.200

 19 10  7  0  5 30.0000000  0 18G01G03G10G11G14G16G18G22G25G26G31G32
                                R05R06R07R09R16R22
 119171444.932 7  92860865.732 7  88991662.743 7  22677568.992
  22677575.453    22677575.832    22677571.523          44.600          44.900
        47.200
 126512181.067 7  98580941.913 6  94473402.713 7  24074470.242
  24074476.531    24074476.316    24074474.734          42.100          40.300
        44.800
 120166499.267 7  93636231.567 7  89734723.775 7  22866919.250
  22866925.352    22866925.926    22866921.082          45.400          44.700
        47.200
 127881738.027 6  99648128.75743                  24335090.844
                  24335094.488                          41.100          20.100

 112146257.077 8  87386733.80446                  21340712.750
                  21340716.004                          48.200          39.500

 130674913.338 6 101824616.68643                  24866603.508
                  24866609.320                          37.500          20.100

 117473113.676 7  91537525.39245                  22354390.203
                  22354395.680                          45.600          32.900

 119330811.698 7  92985104.35945                  22707904.789
                  22707906.352                          47.500          35.600

 121840697.342 7  94940807.840 7  90984945.840 7  23185503.328
  23185510.152    23185509.641    23185508.004          42.600          42.900
        46.600
 119066246.862 7  92778923.497 7  88913136.825 7  22657549.094
  22657556.504    22657556.887    22657553.016          42.000          44.600
        47.500
 105619555.230 8  82300970.140 8                  20098717.328
  20098720.297    20098720.020                          49.800          50.600

 115436143.057 7  89950251.616 7  86202326.754 7  21966758.352
  21966764.008    21966763.391    21966759.348          46.500          46.700
        47.900
 122152065.607 7  95007173.575 7                  22851063.516    22851063.977
  22851068.328    22851067.984                          45.900          43.400

 106124632.146 7                                  19887705.828    19887704.492
                                                        45.000

 115085451.760 7  89510915.427 7                  21498922.641    21498921.859
  21498925.723    21498925.363                          47.000          45.000

 107133340.682 8  83325946.218 8                  20062622.211    20062621.723
  20062623.363    20062623.656                          48.900          49.400

 107160002.245 7  83346684.200 7                  20060565.008    20060564.512
  20060566.031    20060567.305                          44.900          45.400

 126159587.660 6  98124122.253 7                  23633941.609    23633939.570
  23633946.164    23633947.059                          39.200          42.500

 19 10  7  0  5 35.0000000  0 18G01G03G10G11G14G16G18G22G25G26G31G32
                                R05R06R07R09R16R22
 119172793.822 7  92861916.813 7  88992670.028 7  22677825.266
  22677832.086    22677832.633    22677828.242          44.100          45.000
        47.100
 126495544.318 6  98567978.216 6  94460979.176 7  24071304.086
  24071311.223    24071310.008    24071308.977          41.800          40.600
        44.700
 120181464.531 7  93647892.812 7  89745899.132 7  22869767.086
  22869773.586    22869773.770    22869768.863          45.000          45.200
        47.900
 127889691.492 6  99654326.24243                  24336603.766
                  24336608.020                          41.400          20.100

 112148557.849 7  87388526.61546                  21341151.148
                  21341153.750                          47.900          39.400

 130656851.636 6 101810542.64043                  24863167.727
                  24863172.473                          37.100          20.600

 117482340.952 7  91544715.48645                  22356146.039
                  22356151.590                          45.700          33.600

 119317414.158 7  92974664.71445                  22705354.875
                  22705356.703                          46.700          35.900

 121847258.545 7  94945920.448 6  90989845.440 7  23186752.172
  23186758.406    23186758.078    23186756.516          43.400          41.800
        46.600
 119050753.713 7  92766850.909 7  88901567.269 7  22654601.031
  22654608.281    22654608.102    22654604.895          42.300          44.500
        47.600
 105623754.765 8  82304242.498 8                  20099516.586
  20099519.379    20099519.188                          50.500          50.800

 115442982.903 7  89955581.362 7  86207434.433 8  21968059.773
  21968065.242    21968065.027    21968060.918          47.000          46.900
        48.000
 122163795.083 7  95016296.515 7                  22853257.961    22853258.090
  22853261.988    22853262.152                          45.800          42.700

 106123107.216 7                                  19887419.859    19887418.656
                                                        45.100

 115072219.829 7  89500623.933 7                  21496450.742    21496450.453
  21496454.711    21496453.453                          47.200          45.100

 107119737.441 8  83315365.928 8                  20060074.938    20060074.090
  20060075.910    20060076.125                          48.800          49.500

 107170698.966 7  83355003.874 7                  20062568.695    20062567.027
  20062568.891    20062569.660                          44.600          44.800

 126169542.030 6  98131864.525 7                  23635807.570    23635804.984
  23635811.781    23635811.703                          38.800          42.300

 19 10  7  0  5 40.0000000  0 18G01G03G10G11G14G16G18G22G25G26G31G32
                                R05R06R07R09R16R22
 119174158.004 7  92862979.786 7  88993688.729 7  22678085.508
  22678091.766    22678092.262    22678087.758          45.100          44.700
        47.400
 126478909.371 6  98555015.918 6  94448556.994 7  24068139.234
  24068145.391    24068144.207    24068143.141          41.300          40.800
        44.900
 120196438.043 7  93659560.472 7  89757080.654 8  22872616.570
  22872622.945    22872623.414    22872618.309          45.500          45.800
        48.100
 127897653.234 6  99660530.20043                  24338118.938
                  24338123.477                          40.700          20.100

 112150861.138 8  87390321.39246                  21341589.367
                  21341592.047                          48.600          38.800

 130638786.201 6 101796465.70343                  24859730.352
                  24859734.832                          36.500          18.300

 117491579.999 7  91551914.72945                  22357904.141
                  22357909.641                          45.300          33.000

 119304022.764 7  92964229.87145                  22702806.617
                  22702808.328                          46.700          35.700

 121853835.372 7  94951045.254 6  90994756.715 7  23188003.328
  23188010.332    23188009.508    23188007.973          43.100          41.800
        46.300
 119035265.745 6  92754782.346 7  88890001.570 8  22651653.648
  22651660.797    22651660.992    22651657.465          41.700          44.100
        48.000
 105627967.928 8  82307525.481 8                  20100318.172
  20100321.234    20100321.004                          50.500          50.800

 115449825.714 7  89960913.425 7  86212544.327 8  21969361.945
  21969367.559    21969367.074    21969363.043          46.300          46.600
        48.600
 122175532.571 7  95025425.687 7                  22855454.531    22855453.648
  22855458.168    22855457.656                          45.100          42.400

 106121591.868 7                                  19887135.398    19887134.609
                                                        45.500

 115058988.974 7  89490333.248 7                  21493978.797    21493978.801
  21493982.492    21493981.918                          47.900          45.000

 107106151.092 8  83304798.766 8                  20057530.633    20057529.809
  20057531.734    20057531.910                          48.700          49.500

 107181414.330 7  83363338.046 7                  20064573.773    20064572.824
  20064574.391    20064575.445                          44.800          45.600

 126179508.900 6  98139616.504 7                  23637674.188    23637672.262
  23637678.730    23637679.148                          40.200          42.300

 19 10  7  0  5 45.0000000  0 18G01G03G10G11G14G16G18G22G25G26G31G32
                                R05R06R07R09R16R22
 119175537.270 7  92864054.543 7  88994718.706 7  22678346.906
  22678354.348    22678354.668    22678350.332          44.600          44.600
        47.500
 126462276.061 6  98542054.892 6  94436136.029 7  24064973.852
  24064980.367    24064979.730    24064977.879          41.700          41.600
        44.000
 120211419.593 7  93671234.414 7  89768268.170 8  22875467.320
  22875473.906    22875474.074    22875469.219          45.300          45.200
        48.200
 127905623.041 6  99666740.42443                  24339635.781
                  24339640.344                          40.500          21.100

 112153166.822 7  87392118.03346                  21342027.938
                  21342030.840                          47.600          38.900

 130620716.885 5 101782385.74142                  24856290.492
                  24856295.883                          33.900          16.900

 117500830.619 7  91559123.00945                  22359664.641
                  22359669.898                          44.700          33.600

 119290637.346 7  92953799.68246                  22700259.688
                  22700261.168                          46.700          36.400

 121860427.595 7  94956182.059 6  90999679.491 7  23189257.797
  23189264.398    23189264.063    23189262.289          42.700          41.700
        46.000
 119019782.698 7  92742717.638 7  88878439.557 7  22648707.422
  22648713.957    22648714.465    22648710.980          42.600          44.200
        47.600
 105632194.478 8  82310818.893 8                  20101122.781
  20101125.242    20101125.074                          50.100          51.100

 115456671.293 7  89966247.642 7  86217656.290 8  21970664.344
  21970670.121    21970669.777    21970665.777          46.600          47.200
        48.100
 122187277.889 7  95034560.908 7                  22857650.984    22857650.578
  22857655.355    22857654.938                          45.200          42.300

 106120086.143 7                                  19886854.180    19886852.371
                                                        45.100

 115045758.897 7  89480043.186 7                  21491507.453    21491507.211
  21491511.070    21491510.398                          47.600          45.900

 107092581.439 8  83294244.597 8                  20054988.719    20054988.793
  20054990.613    20054990.707                          49.100          49.100

 107192148.157 7  83371686.567 7                  20066583.469    20066582.344
  20066584.098    20066584.918                          44.700          45.200

 126189488.182 6  98147378.122 6                  23639544.016    23639542.352
  23639546.727    23639548.410                          41.200          41.400

 19 10  7  0  5 50.0000000  0 18G01G03G10G11G14G16G18G22G25G26G31G32
                                R05R06R07R09R16R22
 119176932.031 7  92865141.370 7  88995760.234 7  22678612.813
  22678619.578    22678620.055    22678615.715          45.500          44.600
        47.600
 126445644.787 6  98529095.491 7  94423716.559 7  24061808.523
  24061815.313    24061815.098    24061812.871          40.800          42.100
        44.100
 120226409.612 7  93682914.940 7  89779462.014 7  22878319.773
  22878326.023    22878326.633    22878321.605          44.200          45.900
        47.900
 127913601.372 6  99672957.28743                  24341154.117
                  24341158.941                          40.300          21.500

 112155475.286 7  87393916.84346                  21342466.961
                  21342470.109                          47.800          38.700

 130602644.123 5 101768303.08042                  24852852.047
                  24852856.449                          34.800          16.300

 117510093.284 7  91566340.67145                  22361427.266
                  22361432.539                          45.400          33.100

 119277258.354 7  92943374.49846                  22697713.820
                  22697715.348                          46.800          36.600

 121867035.669 7  94961331.213 6  91004614.074 7  23190515.859
  23190521.590    23190521.520    23190519.500          43.100          41.300
        46.000
 119004305.073 7  92730657.152 7  88866881.587 7  22645762.172
  22645769.094    22645769.328    22645765.559          42.400          43.800
        47.300
 105636434.833 8  82314123.076 8                  20101929.188
  20101932.332    20101932.105                          49.800          50.800

 115463520.075 7  89971584.357 7  86222770.640 8  21971967.422
  21971973.398    21971973.004    21971969.191          46.500          47.000
        48.300
 122199031.518 7  95043702.616 7                  22859849.734    22859849.391
  22859854.828    22859853.387                          45.100          42.300

 106118590.428 7                                  19886573.555    19886572.184
                                                        45.200

 115032530.162 7  89469754.178 7                  21489036.297    21489036.004
  21489039.363    21489039.125                          47.500          45.500

 107079028.868 8  83283703.712 8                  20052451.211    20052450.934
  20052453.055    20052452.809                          48.600          49.700

 107202900.800 7  83380049.743 7                  20068596.367    20068595.207
  20068596.563    20068597.934                          44.300          45.200

 126199479.982 7  98155149.534 6                  23641414.797    23641414.395
  23641419.414    23641419.977                          42.400          41.100

 19 10  7  0  5 55.0000000  0 18G01G03G10G11G14G16G18G22G25G26G31G32
                                R05R06R07R09R16R22
 119178341.984 7  92866240.030 7  88996813.129 7  22678881.273
  22678888.109    22678888.375    22678884.086          44.500          44.700
        47.800
 126429015.296 6  98516137.435 6  94411298.441 7  24058644.539
  24058651.141    24058650.859    24058648.582          41.300          41.300
        44.000
 120241407.763 7  93694601.827 7  89790661.939 7  22881173.461
  22881180.332    22881180.711    22881175.805          44.300          45.400
        47.800
 127921587.873 6  99679180.55143                  24342673.156
                  24342678.680                          39.600          20.600

 112157786.217 7  87395717.57146                  21342906.914
                  21342909.879                          47.300          38.400

 130584567.563 5 101754217.46642                  24849411.898
                  24849416.277                          34.700          16.900

 117519367.633 7  91573567.43545                  22363192.313
                  22363197.621                          45.700          32.400

 119263885.488 7  92932954.08645                  22695169.125
                  22695170.590                          46.700          35.500

 121873659.268 7  94966492.478 7  91009560.293 7  23191774.969
  23191783.348    23191781.938    23191779.758          42.600          42.900
        46.600
 118988832.529 7  92718600.639 7  88855327.431 7  22642817.773
  22642824.832    22642825.000    22642821.250          42.500          43.900
        47.300
 105640688.722 8  82317437.796 8                  20102738.594
  20102741.777    20102741.617                          50.500          51.200

 115470371.751 7  89976923.325 7  86227887.146 8  21973271.547
  21973277.508    21973276.984    21973272.965          46.000          46.400
        48.000
 122210792.992 7  95052850.437 6                  22862048.891    22862049.461
  22862053.641    22862053.574                          45.200          41.900

 106117104.357 7                                  19886295.500    19886293.496
                                                        45.300

 115019302.384 8  89459465.905 7                  21486565.461    21486565.059
  21486569.008    21486568.105                          48.000          45.000

 107065493.123 8  83273175.912 8                  20049917.063    20049915.781
  20049917.746    20049917.906                          48.900          49.800

 107213671.960 7  83388427.309 7                  20070612.953    20070611.766
  20070613.012    20070614.191                          44.600          44.700

 126209484.192 7  98162930.598 6                  23643289.547    23643288.492
  23643293.906    23643293.984                          42.600          39.800

 19 10  7  0  6  0.0000000  0 18G01G03G10G11G14G16G18G22G25G26G31G32
                                R05R06R07R09R16R22
 119179767.029 7  92867350.467 7  88997877.286 7  22679152.164
  22679159.168    22679159.465    22679155.281          44.800          44.600
        47.500
 126412387.478 6  98503180.708 7  94398881.569 7  24055480.328
  24055486.859    24055486.914    24055484.512          41.700          42.600
        43.800
 120256414.008 7  93706294.987 7  89801867.887 7  22884029.516
  22884035.949    22884036.500    22884031.461          45.200          45.000
        47.800
 127929582.447 6  99685410.06443                  24344194.906
                  24344200.254                          38.800          20.600

 112160099.543 8  87397520.16046                  21343347.320
                  21343349.949                          48.300          38.700

 130566487.143 6 101740128.83042                  24845971.680
                  24845975.496                          37.100          17.800

 117528653.576 7  91580803.24245                  22364959.234
                  22364964.453                          46.400          33.000

 119250518.670 7  92922538.38945                  22692625.141
                  22692626.688                          46.700          35.800

 121880298.285 7  94971665.730 7  91014518.017 7  23193039.383
  23193045.305    23193045.375    23193043.266          42.900          42.400
        46.000
 118973365.023 7  92706548.031 7  88843777.021 7  22639874.469
  22639881.449    22639881.762    22639878.000          42.600          44.200
        47.300
 105644955.999 8  82320762.951 8                  20103551.063
  20103553.684    20103553.566                          51.000          50.500

 115477226.223 7  89982264.467 7  86233005.748 8  21974576.078
  21974581.645    21974581.457    21974577.379          46.800          46.600
        48.200
 122222562.412 7  95062004.431 6                  22864252.117    22864250.750
  22864256.125    22864255.203                          44.400          41.400

 106115627.908 7                                  19886018.781    19886016.980
                                                        45.100

 115006075.615 7  89449178.432 7                  21484094.227    21484093.957
  21484097.539    21484097.281                          47.800          45.100

 107051974.085 8  83262661.118 8                  20047384.766    20047384.160
  20047386.250    20047386.387                          49.200          50.000

 107224461.550 7  83396819.194 7                  20072632.359    20072631.398
  20072633.273    20072634.145                          44.500          44.600

 126219500.721 7  98170721.202 6                  23645167.102    23645165.523
  23645169.199    23645170.109                          43.000          39.800

 19 10  7  0  6  5.0000000  0 18G01G03G10G11G14G16G18G22G25G26G31G32
                                R05R06R07R09R16R22
 119181207.415 7  92868472.837 7  88998952.900 7  22679426.617
  22679432.902    22679433.586    22679429.277          44.700          44.900
        47.600
 126395761.558 6  98490225.493 6  94386466.123 7  24052316.484
  24052323.254    24052323.246    24052320.887          41.200          41.900
        44.200
 120271428.517 7  93717994.594 7  89813080.017 8  22886886.703
  22886892.969    22886893.309    22886888.637          44.700          45.200
        48.100
 127937585.309 6  99691646.05443                  24345718.039
                  24345723.305                          39.000          20.100

 112162415.489 7  87399324.80146                  21343787.820
                  21343790.828                          47.800          38.800

 130548403.049 5 101726037.34042                  24842530.016
                  24842534.168                          35.000          17.800

 117537951.330 7  91588048.23045                  22366728.586
                  22366733.664                          46.100          33.200

 119237158.167 7  92912127.62046                  22690082.609
                  22690084.352                          46.800          36.500

 121886952.968 7  94976851.205 7  91019487.426 7  23194304.766
  23194311.855    23194311.578    23194309.570          42.500          42.500
        46.100
 118957902.827 7  92694499.556 7  88832230.560 7  22636932.477
  22636939.164    22636939.371    22636935.680          44.100          44.500
        47.200
 105649236.912 8  82324098.721 8                  20104365.227
  20104368.410    20104368.195                          50.200          50.700

 115484083.741 7  89987607.996 7  86238126.623 7  21975880.969
  21975886.629    21975886.520    21975882.391          47.600          46.700
        47.800
 122234339.785 7  95071164.610 6                  22866454.625    22866454.168
  22866459.633    22866458.508                          43.600          41.000

 106114161.214 7                                  19885743.148    19885742.078
                                                        45.100

 114992850.042 7  89438891.874 7                  21481624.563    21481623.105
  21481626.758    21481626.531                          47.300          45.000

 107038472.082 8  83252159.559 8                  20044856.586    20044855.762
  20044858.211    20044857.875                          49.100          49.900

 107235269.603 7  83405225.467 7                  20074656.266    20074654.570
  20074655.922    20074657.598                          44.700          44.300

 126229529.660 7  98178521.481 6                  23647045.000    23647044.094
  23647048.035    23647048.594                          42.500          39.600

 19 10  7  0  6 10.0000000  0 18G01G03G10G11G14G16G18G22G25G26G31G32
                                R05R06R07R09R16R22
 119182662.975 7  92869607.033 7  89000039.829 7  22679703.195
  22679710.109    22679710.527    22679706.441          44.700          45.100
        47.300
 126379137.452 6  98477271.644 6  94374052.035 7  24049153.242
  24049159.449    24049159.340    24049157.418          41.400          41.700
        44.700
 120286451.158 7  93729700.549 7  89824298.213 7  22889745.094
  22889751.840    22889752.125    22889747.418          43.900          45.800
        47.900
 127945596.357 6  99697888.37443                  24347242.016
                  24347247.328                          38.600          21.300

 112164733.918 8  87401131.36346                  21344229.055
                  21344231.883                          48.100          38.600

 130530315.236 5 101711943.04243                  24839088.453
                  24839092.504                          35.900          18.300

 117547260.751 7  91595302.32945                  22368500.039
                  22368505.156                          46.300          32.800

 119223803.814 7  92901721.63646                  22687541.625
                  22687542.887                          47.900          36.200

 121893623.177 7  94982048.770 7  91024468.432 7  23195574.977
  23195581.801    23195581.234    23195579.031          42.800          42.200
        46.100
 118942445.751 7  92682455.081 7  88820687.939 7  22633990.555
  22633997.613    22633997.867    22633994.223          43.500          44.200
        47.200
 105653531.312 8  82327445.000 8                  20105182.977
  20105185.680    20105185.395                          50.800          50.900

 115490944.164 7  89992953.766 7  86243249.654 8  21977186.438
  21977192.070    21977191.914    21977187.914          47.200          46.200
        48.000
 122246125.116 7  95080330.993 6                  22868658.586    22868658.574
  22868664.008    22868662.910                          43.600          40.800

 106112704.302 7                                  19885470.602    19885469.195
                                                        45.100

 114979625.504 7  89428606.113 7                  21479152.828    21479152.527
  21479156.645    21479156.168                          47.100          44.900

 107024986.907 8  83241671.096 8                  20042330.953    20042330.398
  20042332.641    20042332.547                          49.100          50.200

 107246096.252 7  83413646.203 7                  20076682.797    20076681.598
  20076683.223    20076684.242                          44.600          45.000

 126239570.934 7  98186331.371 6                  23648925.336    23648925.688
  23648929.336    23648929.426                          42.800          39.700

 19 10  7  0  6 15.0000000  0 18G01G03G10G11G14G16G18G22G25G26G31G32
                                R05R06R07R09R16R22
 119184133.695 7  92870753.048 7  89001138.099 7  22679983.430
  22679989.613    22679990.313    22679986.160          44.600          44.900
        47.200
 126362515.150 6  98464319.200 6  94361639.272 7  24045990.266
  24045995.625    24045995.875    24045994.078          41.700          40.900
        44.500
 120301481.892 7  93741412.814 7  89835522.464 7  22892605.250
  22892612.438    22892612.172    22892607.707          43.900          45.600
        47.900
 127953615.509 6  99704137.07943                  24348768.336
                  24348774.031                          39.400          21.500

 112167054.805 7  87402939.85646                  21344671.016
                  21344673.457                          47.600          38.700

 130512223.710 6 101697845.74043                  24835644.883
                  24835649.859                          37.200          18.600

 117556581.819 7  91602565.50045                  22370273.328
                  22370278.980                          45.800          32.700

 119210455.629 7  92891320.45346                  22685001.563
                  22685002.988                          46.800          36.000

 121900308.906 7  94987258.425 7  91029461.024 7  23196847.547
  23196853.523    23196853.473    23196851.215          43.600          43.000
        46.000
 118926993.845 7  92670414.640 7  88809149.184 7  22631050.578
  22631057.289    22631057.535    22631053.758          43.000          44.900
        47.200
 105657839.157 8  82330801.764 8                  20106002.719
  20106005.551    20106005.098                          50.500          51.100

 115497807.472 7  89998301.795 7  86248374.844 8  21978492.406
  21978498.355    21978498.281    21978493.965          47.200          47.300
        48.000
 122257918.409 7  95089503.551 6                  22870865.797    22870864.688
  22870869.527    22870869.020                          43.200          40.900

 106111257.022 7                                  19885199.102    19885197.910
                                                        44.500

 114966401.887 7  89418321.100 7                  21476683.180    21476682.473
  21476686.891    21476685.770                          47.600          45.300

 107011518.579 8  83231195.724 8                  20039809.281    20039808.227
  20039810.047    20039810.305                          48.800          50.200

 107256941.288 7  83422081.226 7                  20078713.266    20078711.820
  20078712.414    20078714.453                          44.500          45.500

 126249624.481 7  98194150.815 6                  23650809.047    23650808.926
  23650812.910    23650812.926                          43.100          41.000

 19 10  7  0  6 20.0000000  0 18G01G03G10G11G14G16G18G22G25G26G31G32
                                R05R06R07R09R16R22
 119185619.663 7  92871910.947 7  89002247.738 7  22680265.320
  22680272.656    22680273.117    22680268.961          44.400          45.300
        47.700
 126345894.716 6  98451368.223 6  94349227.922 7  24042827.344
  24042833.250    24042833.094    24042830.957          41.600          41.400
        44.500
 120316520.815 7  93753131.437 7  89846752.827 7  22895467.180
  22895473.957    22895474.203    22895469.672          44.500          45.600
        47.700
 127961642.774 6  99710392.06443                  24350295.570
                  24350301.672                          40.500          21.300

 112169378.245 7  87404750.32146                  21345112.836
                  21345115.617                          46.900          39.300

 130494128.556 5 101683745.67243                  24832201.969
                  24832206.828                          35.300          18.600

 117565914.613 7  91609837.79445                  22372049.883
                  22372054.918                          45.500          33.800

 119197113.708 7  92880924.15545                  22682462.469
                  22682464.125                          46.300          35.400

 121907010.183 7  94992480.201 7  91034465.211 7  23198122.031
  23198128.633    23198129.027    23198126.320          44.300          43.400
        46.000
 118911547.179 7  92658378.292 7  88797614.330 7  22628110.969
  22628118.270    22628118.270    22628114.500          43.200          45.000
        47.300
 105662160.504 8  82334169.048 8                  20106824.750
  20106827.617    20106827.500                          50.100          50.700

 115504673.727 7  90003652.132 7  86253502.245 8  21979798.961
  21979804.926    21979804.723    21979800.660          46.800          47.300
        48.500
 122269719.713 7  95098682.352 6                  22873072.984    22873072.426
  22873076.375    22873076.340                          42.700          40.400

 106109819.629 7                                  19884929.664    19884928.273
                                                        45.200

 114953179.425 8  89408036.963 7                  21474213.344    21474212.488
  21474216.695    21474215.758                          48.000          45.600

 106998067.193 8  83220733.543 8                  20037290.430    20037289.234
  20037291.953    20037291.289                          48.800          50.200

 107267804.869 7  83430530.662 7                  20080746.750    20080745.648
  20080747.047    20080748.227                          44.800          45.400

 126259690.388 7  98201979.877 6                  23652695.563    23652694.602
  23652698.207    23652698.617                          42.200          41.500

 19 10  7  0  6 25.0000000  0 18G01G03G10G11G14G16G18G22G25G26G31G32
                                R05R06R07R09R16R22
 119187120.783 7  92873080.656 7  89003368.715 7  22680551.609
  22680558.398    22680558.770    22680554.609          43.700          45.000
        47.500
 126329276.120 6  98438418.649 6  94336817.930 7  24039665.172
  24039671.152    24039670.305    24039668.594          41.400          41.500
        44.200
 120331567.828 7  93764856.404 7  89857989.245 8  22898330.430
  22898337.375    22898337.742    22898332.969          43.700          45.600
        48.000
 127969678.217 6  99716653.45543                  24351825.148
                  24351830.426                          40.800          21.100

 112171704.178 7  87406562.74546                  21345555.594
                  21345558.395                          47.900          38.900

 130476029.688 5 101669642.73843                  24828757.836
                  24828762.914                          35.900          19.000

 117575259.027 7  91617119.16045                  22373827.695
                  22373833.184                          45.500          33.600

 119183777.991 7  92870532.68346                  22679924.930
                  22679926.305                          46.300          36.200

 121913726.974 7  94997714.054 7  91039480.997 7  23199400.195
  23199406.832    23199407.063    23199404.465          43.900          43.000
        45.900
 118896105.711 7  92646345.978 7  88786083.377 7  22625172.602
  22625179.707    22625179.914    22625176.273          42.600          44.900
        47.200
 105666495.341 8  82337546.841 8                  20107649.961
  20107652.629    20107652.348                          48.800          50.500

 115511542.906 7  90009004.725 7  86258631.833 7  21981106.203
  21981111.813    21981111.934    21981107.902          47.500          47.600
        47.900
 122281529.013 7  95107867.362 6                  22875282.508    22875281.383
  22875284.625    22875285.246                          42.000          40.100

 106108392.023 7                                  19884662.359    19884660.809
                                                        45.000

 114939958.058 7  89397753.672 7                  21471743.383    21471742.605
  21471746.551    21471745.781                          47.600          46.300

 106984632.731 8  83210284.522 8                  20034774.281    20034773.559
  20034775.230    20034775.441                          48.400          50.500

 107278686.812 7  83438994.397 7                  20082783.531    20082782.637
  20082784.492    20082785.293                          45.200          44.900

 126269768.616 6  98209818.486 6                  23654582.891    23654582.313
  23654586.148    23654586.988                          41.100          40.200

 19 10  7  0  6 30.0000000  0 18G01G03G10G11G14G16G18G22G25G26G31G32
                                R05R06R07R09R16R22
 119188637.161 7  92874262.245 7  89004501.062 7  22680840.289
  22680847.156    22680847.148    22680843.180          44.500          44.700
        47.500
 126312659.401 6  98425470.565 6  94324409.366 7  24036502.508
  24036508.773    24036508.391    24036506.547          40.100          41.400
        44.500
 120346623.053 7  93776587.734 7  89869231.767 8  22901195.398
  22901201.879    22901202.516    22901197.895          43.900          45.400
        48.600
 127977721.809 6  99722921.16443                  24353355.289
                  24353360.598                          40.100          20.100

 112174032.659 8  87408377.14346                  21345998.375
                  21346001.414                          48.100          38.600

 130457927.174 5 101655536.88743                  24825313.313
                  24825318.023                          35.700          18.600

 117584615.079 7  91624409.58745                  22375607.445
                  22375613.723                          44.600          33.300

 119170448.546 7  92860146.11245                  22677388.398
                  22677389.887                          46.700          35.700

 121920459.334 7  95002960.058 7  91044508.411 7  23200681.359
  23200688.363    23200687.930    23200685.809          44.400          42.800
        46.000
 118880669.567 7  92634317.807 7  88774556.375 7  22622234.906
  22622242.492    22622242.648    22622238.688          43.600          45.400
        46.700
 105670843.687 8  82340935.163 8                  20108477.383
  20108480.094    20108479.855                          49.600          50.100

 115518415.060 7  90014359.650 8  86263763.640 8  21982413.914
  21982419.613    21982419.641    21982415.645          47.600          48.000
        48.100
 122293346.177 7  95117058.495 6                  22877492.836    22877491.723
  22877495.664    22877496.148                          42.000          39.600

 106106974.134 7                                  19884396.867    19884395.168
                                                        44.900

 114926737.938 7  89387471.345 7                  21469273.258    21469272.746
  21469276.352    21469276.328                          47.000          45.300

 106971215.268 8  83199848.714 8                  20032260.883    20032260.621
  20032262.902    20032262.785                          49.000          50.300

 107289587.237 7  83447472.501 7                  20084823.953    20084823.320
  20084824.531    20084825.809                          44.800          45.300

 126279859.125 6  98217666.626 6                  23656472.750    23656471.348
  23656476.172    23656477.477                          41.100          40.100

 19 10  7  0  6 35.0000000  0 18G01G03G10G11G14G16G18G22G25G26G31G32
                                R05R06R07R09R16R22
 119190168.717 7  92875455.652 7  89005644.761 7  22681131.727
  22681138.824    22681138.746    22681134.699          45.200          44.700
        47.300
 126296044.536 6  98412523.949 6  94312002.200 7  24033340.859
  24033347.461    24033347.125    24033344.492          40.800          41.800
        44.000
 120361686.387 7  93788325.412 7  89880480.366 8  22904062.195
  22904068.539    22904068.840    22904064.219          43.900          45.100
        48.100
 127985773.499 6  99729195.22143                  24354887.969
                  24354892.500                          40.600          20.600

 112176363.680 7  87410193.52746                  21346442.172
                  21346445.211                          47.900          38.500

 130439821.169 6 101641428.39743                  24821866.992
                  24821872.328                          36.300          18.300

 117593982.761 7  91631709.07945                  22377391.102
                  22377396.309                          44.800          33.300

 119157125.365 7  92849764.41646                  22674853.195
                  22674854.582                          46.500          36.300

 121927207.204 7  95008218.144 7  91049547.417 7  23201965.508
  23201971.836    23201971.805    23201969.730          43.700          42.000
        45.600
 118865238.672 7  92622293.724 7  88763033.303 7  22619298.711
  22619306.137    22619306.332    22619302.215          43.000          45.100
        47.300
 105675205.534 8  82344333.995 8                  20109307.172
  20109310.074    20109309.844                          49.600          50.100

 115525290.157 7  90019716.880 7  86268897.635 8  21983722.281
  21983727.762    21983727.988    21983723.945          47.000          47.500
        48.400
 122305171.468 7  95126255.939 6                  22879704.281    22879703.809
  22879708.016    22879707.980                          42.200          38.700

 106105566.078 7                                  19884133.148    19884131.141
                                                        44.800

 114913518.897 7  89377189.865 7                  21466804.500    21466803.691
  21466807.547    21466806.883                          47.500          45.800

 106957814.726 8  83189426.089 8                  20029751.664    20029751.199
  20029753.430    20029753.383                          49.500          50.000

 107300506.074 7  83455964.941 7                  20086868.516    20086867.082
  20086867.898    20086869.887                          44.800          44.700

 126289961.986 6  98225524.364 6                  23658365.055    23658364.059
  23658369.832    23658369.801                          40.900          39.700

 19 10  7  0  6 40.0000000  0 18G01G03G10G11G14G16G18G22G25G26G31G32
                                R05R06R07R09R16R22
 119191715.527 7  92876660.944 7  89006799.846 7  22681426.250
  22681432.688    22681433.059    22681428.867          44.300          44.000
        47.400
 126279431.654 6  98399578.877 7  94299596.481 7  24030179.734
  24030185.820    24030185.781    24030183.430          41.700          42.300
        43.800
 120376757.912 7  93800069.447 7  89891735.077 7  22906929.578
  22906936.758    22906936.965    22906932.313          44.400          45.300
        47.900
 127993833.325 6  99735475.58543                  24356421.688
                  24356425.840                          41.300          21.500

 112178697.296 7  87412011.92546                  21346886.305
                  21346889.156                          47.400          38.700

 130421711.532 6 101627316.93542                  24818422.000
                  24818425.832                          37.900          17.400

 117603362.157 7  91639017.69645                  22379175.867
                  22379181.211                          45.200          33.900

 119143808.525 7  92839387.66745                  22672319.117
                  22672320.684                          46.700          35.600

 121933970.685 7  95013488.374 7  91054598.063 7  23203252.820
  23203259.621    23203259.039    23203256.703          44.900          43.100
        45.500
 118849813.099 7  92610273.813 7  88751514.208 7  22616363.188
  22616370.215    22616370.969    22616366.680          43.100          45.000
        46.500
 105679580.898 8  82347743.371 8                  20110139.672
  20110142.648    20110142.348                          50.500          50.900

 115532168.248 7  90025076.423 7  86274033.884 7  21985030.875
  21985037.039    21985036.813    21985032.691          47.300          47.400
        47.900
 122317004.774 7  95135459.640 6                  22881918.875    22881917.242
  22881921.691    22881921.727                          42.200          39.500

 106104167.889 7                                  19883870.297    19883869.215
                                                        44.900

 114900300.984 7  89366909.277 7                  21464335.344    21464334.297
  21464338.098    21464337.895                          46.800          46.200

 106944431.258 8  83179016.722 8                  20027245.313    20027245.008
  20027246.832    20027246.859                          48.900          50.300

 107311443.458 7  83464471.793 7                  20088915.969    20088914.805
  20088916.602    20088917.273                          44.900          45.800

 126300076.975 6  98233391.599 6                  23660260.375    23660258.938
  23660264.074    23660264.566                          40.700          39.300

 19 10  7  0  6 45.0000000  0 18G01G03G10G11G14G16G18G22G25G26G31G32
                                R05R06R07R09R16R22
 119193277.244 7  92877877.884 7  89007966.066 7  22681723.328
  22681730.250    22681730.219    22681726.055          44.900          44.100
        47.900
 126262820.422 6  98386635.049 6  94287191.978 7  24027018.539
  24027024.934    24027024.820    24027022.887          41.400          41.600
        43.700
 120391837.298 7  93811819.618 7  89902995.649 7  22909799.648
  22909805.977    22909806.410    22909801.938          43.500          45.400
        47.700
 128001901.006 6  99741762.10043                  24357957.375
                  24357960.711                          41.700          20.600

 112181033.183 7  87413832.09646                  21347330.578
                  21347333.695                          47.500          38.600

 130403597.982 6 101613202.54242                  24814974.867
                  24814978.660                          36.900          16.900

 117612752.901 7  91646335.16345                  22380962.836
                  22380968.266                          46.100          33.300

 119130497.664 7  92829015.57346                  22669786.148
                  22669787.500                          46.900          36.100

 121940749.425 7  95018770.504 7  91059660.110 7  23204542.375
  23204548.727    23204548.801    23204546.684          44.600          42.400
        46.100
 118834392.598 7  92598257.804 7  88739998.890 7  22613428.438
  22613436.426    22613436.363    22613432.426          43.300          45.400
        47.200
 105683969.452 8  82351163.007 8                  20110974.938
  20110978.035    20110977.543                          50.100          50.900

 115539049.029 7  90030438.082 7  86279172.139 7  21986340.445
  21986346.660    21986346.160    21986342.266          47.500          47.200
        47.900
 122328845.801 6  95144669.287 6                  22884132.773    22884132.387
  22884138.355    22884136.891                          41.800          39.800

 106102779.225 7                                  19883610.281    19883608.535
                                                        44.900

 114887083.999 7  89356629.405 7                  21461866.078    21461865.434
  21461868.840    21461868.828                          47.900          46.200

 106931064.551 8  83168620.391 8                  20024742.125    20024741.840
  20024743.355    20024743.805                          49.300          50.700

 107322398.832 7  83472992.643 7                  20090966.250    20090965.590
  20090966.727    20090968.215                          44.100          44.900

 126310204.015 6  98241268.197 6                  23662158.125    23662156.043
  23662159.926    23662161.414                          40.500          40.400

 19 10  7  0  6 50.0000000  0 18G01G03G10G11G14G16G18G22G25G26G31G32
                                R05R06R07R09R16R22
 119194854.366 7  92879106.820 7  89009143.783 7  22682023.234
  22682030.219    22682030.238    22682026.223          45.000          45.000
        47.200
 126246211.304 6  98373692.886 6  94274789.057 7  24023858.297
  24023863.879    24023864.145    24023862.195          41.500          41.800
        43.900
 120406924.990 7  93823576.254 7  89914262.429 7  22912670.516
  22912677.535    22912677.484    22912672.910          43.900          45.700
        47.900
 128009977.007 6  99748055.10443                  24359493.336
                  24359497.188                          41.000          20.600

 112183371.785 7  87415654.38546                  21347776.109
                  21347778.855                          47.000          39.000

 130385481.104 6 101599085.50242                  24811527.430
                  24811531.324                          37.200          17.400

 117622155.408 7  91653661.78345                  22382752.703
                  22382757.629                          46.100          32.800

 119117193.306 7  92818648.53646                  22667254.242
                  22667255.742                          47.800          36.400

 121947543.850 7  95024064.874 7  91064733.883 7  23205835.445
  23205842.324    23205841.707    23205839.555          44.100          42.200
        46.100
 118818977.565 7  92586246.108 7  88728487.676 7  22610496.039
  22610502.500    22610503.109    22610499.227          43.500          45.500
        47.100
 105688371.661 8  82354593.300 8                  20111812.172
  20111815.594    20111815.285                          49.700          50.400

 115545932.964 7  90035802.186 7  86284312.741 8  21987650.227
  21987656.730    21987656.070    21987652.051          47.100          47.500
        48.200
 122340695.006 6  95153885.355 6                  22886350.680    22886348.891
  22886353.645    22886353.574                          41.300          40.100

 106101400.472 7                                  19883351.188    19883350.402
                                                        44.700

 114873868.391 7  89346350.610 7                  21459396.359    21459396.508
  21459400.387    21459400.039                          47.500          46.400

 106917715.071 8  83158237.477 8                  20022242.398    20022241.883
  20022243.496    20022243.910                          49.200          49.600

 107333372.748 7  83481527.902 7                  20093021.008    20093019.816
  20093021.746    20093022.473                          44.900          44.600

 126320343.487 6  98249154.427 6                  23664057.258    23664056.031
  23664060.543    23664060.449                          41.400          39.900

 19 10  7  0  6 55.0000000  0 18G01G03G10G11G14G16G18G22G25G26G31G32
                                R05R06R07R09R16R22
 119196446.547 7  92880347.458 7  89010332.752 7  22682326.633
  22682333.113    22682333.309    22682329.324          44.800          44.500
        47.800
 126229603.983 6  98360752.116 6  94262387.517 7  24020697.953
  24020704.078    24020703.941    24020701.809          40.900          41.300
        44.400
 120422020.680 7  93835339.142 7  89925535.186 7  22915543.094
  22915550.020    22915550.348    22915545.344          43.400          45.800
        47.600
 128018060.976 6  99754354.29043                  24361032.156
                  24361035.238                          41.000          20.600

 112185712.772 7  87417478.53446                  21348221.688
                  21348224.289                          47.900          38.800

 130367360.459 5 101584965.58243                  24808078.305
                  24808083.211                          35.400          18.300

 117631569.472 7  91660997.41445                  22384543.516
                  22384549.020                          45.300          34.300

 119103895.146 7  92808286.34245                  22664723.688
                  22664725.195                          47.800          35.900

 121954353.700 7  95029371.281 7  91069819.180 7  23207131.195
  23207138.152    23207137.629    23207135.484          44.800          42.500
        45.700
 118803567.771 7  92574238.472 7  88716980.349 7  22607562.852
  22607570.391    22607570.598    22607566.848          43.600          45.300
        47.200
 105692787.214 8  82358033.982 8                  20112653.109
  20112656.000    20112655.590                          49.500          50.800

 115552819.747 7  90041168.511 7  86289455.461 8  21988961.164
  21988967.418    21988966.648    21988962.559          47.300          47.300
        48.100
 122352552.007 6  95163107.471 6                  22888569.172    22888566.773
  22888571.926    22888571.637                          41.400          39.900

 106100031.513 7                                  19883095.609    19883093.598
                                                        44.700

 114860653.850 7  89336072.630 7                  21456928.148    21456927.891
  21456931.516    21456931.363                          47.100          46.000

 106904382.432 8  83147867.641 8                  20019745.836    20019745.254
  20019747.605    20019747.047                          49.200          50.800

 107344365.052 7  83490077.474 7                  20095078.766    20095077.723
  20095079.047    20095080.383                          45.100          45.000

 126330494.993 7  98257050.059 6                  23665959.625    23665957.934
  23665961.984    23665962.660                          42.100          39.400

 19 10  7  0  7  0.0000000  0 18G01G03G10G11G14G16G18G22G25G26G31G32
                                R05R06R07R09R16R22
 119198053.834 7  92881599.894 7  89011532.996 7  22682632.344
  22682638.816    22682639.328    22682635.160          44.500          45.000
        47.600
 126212998.562 6  98347812.831 6  94249987.340 7  24017537.789
  24017544.246    24017543.719    24017542.039          40.500          41.100
        44.500
 120437124.401 7  93847108.272 7  89936813.929 7  22918417.289
  22918423.961    22918424.441    22918419.465          44.100          45.400
        47.900
 128026152.892 6  99760659.67943                  24362570.984
                  24362575.191                          41.300          20.900

 112188056.230 7  87419304.60346                  21348667.203
                  21348670.387                          47.800          39.000

 130349236.099 5 101570842.76743                  24804630.133
                  24804634.391                          35.500          18.600

 117640995.024 7  91668341.99645                  22386337.422
                  22386342.738                          45.300          33.800

 119090603.195 7  92797928.98145                  22662194.000
                  22662195.820                          47.100          35.500

 121961178.970 7  95034689.665 7  91074915.959 7  23208430.430
  23208436.809    23208436.441    23208434.258          45.000          42.200
        46.400
 118788163.219 7  92562234.941 7  88705476.966 7  22604631.453
  22604638.980    22604639.109    22604635.305          43.000          44.800
        47.500
 105697216.101 8  82361485.069 8                  20113495.617
  20113498.641    20113498.371                          50.200          50.400

 115559709.410 7  90046537.057 7  86294600.328 8  21990272.234
  21990278.367    21990277.785    21990273.602          47.900          47.500
        48.300
 122364416.993 7  95172335.792 6                  22890788.195    22890788.172
  22890790.766    22890791.363                          42.900          39.300

 106098672.356 7                                  19882840.758    19882839.215
                                                        44.200

 114847440.267 7  89325795.401 7                  21454460.328    21454459.801
  21454463.582    21454463.047                          47.500          46.300

 106891066.804 8  83137511.052 8                  20017251.945    20017251.563
  20017253.398    20017253.621                          48.900          49.800

 107355375.625 7  83498641.252 7                  20097140.180    20097138.930
  20097139.598    20097141.563                          45.100          44.800

 126340658.713 6  98264955.162 6                  23667863.313    23667861.789
  23667866.934    23667867.203                          41.800          41.200

 19 10  7  0  7  5.0000000  0 18G01G03G10G11G14G16G18G22G25G26G31G32
                                R05R06R07R09R16R22
 119199676.461 7  92882864.277 7  89012744.677 7  22682941.023
  22682947.926    22682947.820    22682944.086          44.700          44.500
        47.200
 126196395.199 6  98334875.162 6  94237588.765 7  24014377.914
  24014384.531    24014383.844    24014382.535          40.300          41.000
        44.100
 120452236.158 7  93858883.644 7  89948098.681 7  22921292.422
  22921299.680    22921300.090    22921295.090          43.900          45.000
        47.300
 128034253.024 6  99766971.45143                  24364113.398
                  24364116.535                          40.900          19.600

 112190402.378 7  87421132.76046                  21349113.594
                  21349116.676                          47.300          38.800

 130331108.437 6 101556717.37743                  24801179.703
                  24801184.820                          36.400          19.900

 117650432.285 7  91675695.70045                  22388133.000
                  22388138.672                          46.200          34.000

 119077317.725 7  92787576.67345                  22659666.313
                  22659667.699                          47.800          35.800

 121968019.959 7  95040020.274 7  91080024.480 7  23209731.938
  23209738.742    23209738.230    23209736.145          44.700          42.800
        45.800
 118772764.232 7  92550235.726 7  88693977.714 7  22601701.477
  22601708.488    22601709.055    22601705.078          42.600          44.900
        47.400
 105701658.601 8  82364946.760 8                  20114341.086
  20114344.254    20114343.766                          51.500          50.600

 115566602.180 7  90051908.058 8  86299747.543 8  21991583.703
  21991589.727    21991589.477    21991585.160          47.600          48.100
        48.200
 122376290.125 7  95181570.441 6                  22893008.563    22893008.082
  22893012.676    22893012.375                          42.800          38.300

 106097323.133 7                                  19882588.477    19882586.578
                                                        44.000

 114834228.222 8  89315519.368 7                  21451991.813    21451991.457
  21451995.250    21451994.953                          48.200          46.200

 106877768.363 8  83127167.820 8                  20014761.820    20014761.324
  20014763.129    20014763.012                          49.200          49.800

 107366404.571 7  83507219.297 7                  20099204.414    20099203.691
  20099205.012    20099206.008                          45.500          44.700

 126350834.656 6  98272869.762 6                  23669769.492    23669767.906
  23669773.242    23669773.660                          41.400          41.400

 19 10  7  0  7 10.0000000  0 18G01G03G10G11G14G16G18G22G25G26G31G32
                                R05R06R07R09R16R22
 119201314.125 7  92884140.356 7  89013967.612 7  22683252.680
  22683259.570    22683259.648    22683255.734          43.100          44.700
        47.500
 126179793.657 6  98321938.903 6  94225191.529 7  24011219.078
  24011225.371    24011224.754    24011223.090          40.700          41.700
        44.500
 120467356.101 7  93870665.413 7  89959389.537 7  22924170.219
  22924176.949    22924177.078    22924172.125          43.700          44.500
        47.200
 128042361.020 6  99773289.36243                  24365656.336
                  24365659.539                          40.800          19.900

 112192750.906 7  87422962.78146                  21349560.789
                  21349563.578                          45.800          38.700

 130312977.063 6 101542589.08443                  24797730.258
                  24797734.668                          36.100          18.600

 117659880.943 7  91683058.29245                  22389931.008
                  22389936.848                          45.800          33.400

 119064038.440 7  92777229.17845                  22657139.523
                  22657140.688                          47.800          35.500

 121974876.240 7  95045362.859 7  91085144.454 7  23211036.398
  23211043.188    23211043.000    23211040.809          44.000          42.500
        46.300
 118757370.435 7  92538240.577 7  88682482.357 7  22598772.664
  22598779.676    22598779.695    22598775.852          42.900          44.700
        47.500
 105706114.380 8  82368418.790 8                  20115188.586
  20115191.641    20115191.656                          50.600          50.500

 115573497.763 7  90057281.250 7  86304896.843 8  21992895.594
  21992901.730    21992901.586    21992897.316          46.600          47.500
        48.500
 122388171.062 7  95190811.152 6                  22895233.180    22895231.414
  22895235.742    22895235.074                          43.500          40.600

 106095983.758 7                                  19882336.336    19882335.531
                                                        44.400

 114821017.179 8  89305244.118 7                  21449524.266    21449523.305
  21449527.273    21449527.027                          48.100          45.600

 106864486.887 8  83116837.783 8                  20012274.453    20012273.918
  20012275.934    20012275.914                          49.800          50.000

 107377451.733 7  83515811.547 7                  20101272.352    20101271.797
  20101273.031    20101274.000                          44.600          44.500

 126361022.573 6  98280793.667 6                  23671677.969    23671675.992
  23671681.426    23671682.207                          40.600          40.400

 19 10  7  0  7 15.0000000  0 18G01G03G10G11G14G16G18G22G25G26G31G32
                                R05R06R07R09R16R22
 119202966.948 7  92885428.273 7  89015201.870 7  22683567.336
  22683574.207    22683574.102    22683570.168          44.600          45.000
        47.700
 126163194.148 6  98309004.236 7  94212795.807 7  24008060.898
  24008066.414    24008066.203    24008064.641          41.300          42.000
        44.400
 120482484.145 7  93882453.517 7  89970686.455 7  22927048.781
  22927055.547    22927056.195    22927050.934          44.200          45.000
        47.600
 128050477.082 6  99779613.59043                  24367200.516
                  24367204.313                          40.800          21.100

 112195102.048 7  87424794.84746                  21350007.914
                  21350011.094                          47.900          38.900

 130294842.214 6 101528458.06242                  24794278.008
                  24794283.523                          36.300          17.800

 117669341.178 7  91690429.89245                  22391731.641
                  22391736.914                          45.400          33.800

 119050765.553 7  92766886.66645                  22654613.461
                  22654615.266                          47.300          35.200

 121981748.109 7  95050717.535 7  91090276.044 7  23212344.688
  23212350.977    23212350.648    23212348.602          43.200          42.400
        45.900
 118741982.099 7  92526249.650 7  88670991.074 7  22595843.773
  22595851.492    22595851.313    22595847.500          42.100          45.300
        47.000
 105710583.660 8  82371901.341 8                  20116039.617
  20116042.387    20116041.977                          50.200          50.200

 115580396.371 7  90062656.780 7  86310048.402 8  21994208.383
  21994214.598    21994214.387    21994210.094          47.800          47.800
        48.300
 122400060.087 7  95200058.197 6                  22897455.320    22897455.023
  22897459.836    22897459.449                          43.200          40.800

 106094654.191 7                                  19882088.281    19882086.152
                                                        44.500

 114807807.345 8  89294969.801 7                  21447056.453    21447056.086
  21447059.387    21447059.371                          48.100          45.900

 106851222.484 8  83106521.022 8                  20009790.133    20009789.664
  20009792.320    20009791.938                          49.300          50.200

 107388517.288 7  83524418.070 7                  20103344.305    20103343.031
  20103344.402    20103345.504                          44.600          45.300

 126371222.689 6  98288727.106 6                  23673589.219    23673587.008
  23673592.367    23673592.785                          41.100          40.800

 19 10  7  0  7 20.0000000  0 18G01G03G10G11G14G16G18G22G25G26G31G32
                                R05R06R07R09R16R22
 119204635.128 7  92886728.148 7  89016447.578 7  22683884.352
  22683891.309    22683891.449    22683887.656          44.400          44.500
        47.400
 126146596.794 6  98296071.253 7  94200401.688 7  24004901.547
  24004907.672    24004908.355    24004906.336          41.100          42.000
        44.200
 120497620.424 7  93894248.027 7  89981989.540 7  22929929.164
  22929936.504    22929936.477    22929931.273          44.100          45.500
        47.400
 128058601.325 6  99785944.14243                  24368746.891
                  24368750.641                          40.200          20.900

 112197455.907 7  87426629.01446                  21350456.047
                  21350459.063                          46.000          39.200

 130276703.996 6 101514324.43343                  24790826.906
                  24790831.824                          37.500          18.300

 117678813.134 7  91697810.64045                  22393533.570
                  22393539.355                          46.200          34.000

 119037499.184 7  92756549.24145                  22652089.133
                  22652090.488                          47.500          35.500

 121988635.654 7  95056084.454 6  91095419.318 7  23213654.453
  23213661.559    23213661.102    23213659.238          44.600          41.700
        46.300
 118726599.324 7  92514263.090 7  88659503.946 7  22592915.953
  22592923.152    22592924.043    22592920.184          42.400          44.300
        47.500
 105715066.513 8  82375394.466 8                  20116892.563
  20116895.406    20116895.254                          50.800          50.300

 115587298.102 8  90068034.765 7  86315202.294 7  21995521.578
  21995528.004    21995527.840    21995523.320          48.100          47.300
        47.600
 122411957.274 7  95209311.544 6                  22899681.594    22899681.887
  22899685.305    22899685.293                          43.100          40.200

 106093334.827 7                                  19881840.234    19881838.988
                                                        44.000

 114794599.000 8  89284696.648 7                  21444588.734    21444588.719
  21444592.340    21444592.082                          48.400          46.100

 106837975.419 8  83096217.751 8                  20007310.000    20007309.293
  20007311.152    20007311.066                          49.000          50.200

 107399601.352 7  83533039.013 7                  20105418.977    20105418.199
  20105419.531    20105420.520                          44.500          45.100

 126381435.191 6  98296670.135 6                  23675502.164    23675499.906
  23675505.750    23675505.438                          40.900          40.000

 19 10  7  0  7 25.0000000  0 18G01G03G10G11G14G16G18G22G25G26G31G32
                                R05R06R07R09R16R22
 119206318.105 7  92888039.586 7  89017704.367 8  22684204.859
  22684211.473    22684211.855    22684207.867          43.900          44.500
        48.000
 126130001.090 6  98283139.542 6  94188008.801 7  24001743.906
  24001749.848    24001749.891    24001747.945          41.100          41.300
        44.600
 120512764.470 7  93906048.566 7  89993298.400 7  22932811.414
  22932817.738    22932818.105    22932812.938          45.000          45.000
        47.200
 128066733.179 6  99792280.66443                  24370294.055
                  24370298.199                          39.900          19.900

 112199811.932 7  87428464.87546                  21350904.250
                  21350907.355                          46.100          38.600

 130258561.939 6 101500187.78343                  24787374.586
                  24787379.598                          36.900          19.000

 117688296.281 7  91705200.09545                  22395338.656
                  22395343.875                          46.000          35.100

 119024238.855 7  92746216.51945                  22649565.813
                  22649567.059                          47.200          35.300

 121995538.329 7  95061463.167 6  91100573.915 7  23214969.023
  23214975.355    23214974.445    23214972.801          44.500          41.800
        46.100
 118711221.628 7  92502280.488 7  88648020.620 7  22589990.578
  22589997.387    22589997.676    22589993.902          43.000          45.300
        47.300
 105719562.415 8  82378897.755 8                  20117748.172
  20117751.156    20117750.652                          50.000          50.300

 115594202.457 7  90073414.783 7  86320358.152 8  21996835.664
  21996841.844    21996841.754    21996837.336          47.200          47.200
        48.100
 122423862.100 7  95218570.872 6                  22901908.281    22901908.730
  22901912.293    22901912.188                          43.700          40.600

 106092024.871 7                                  19881595.297    19881593.078
                                                        44.500

 114781391.461 8  89274424.111 7                  21442121.992    21442121.379
  21442125.352    21442124.695                          48.100          46.500

 106824745.042 8  83085927.468 8                  20004832.281    20004831.328
  20004833.691    20004833.500                          49.100          50.200

 107410703.242 7  83541673.809 7                  20107497.039    20107496.723
  20107496.953    20107498.801                          45.300          44.700

 126391659.329 6  98304622.267 6                  23677416.922    23677415.219
  23677419.875    23677420.535                          40.500          38.400

 19 10  7  0  7 30.0000000  0 18G01G03G10G11G14G16G18G22G25G26G31G32
                                R05R06R07R09R16R22
 119208016.488 7  92889362.971 7  89018972.612 7  22684528.461
  22684534.672    22684535.020    22684530.957          44.500          44.800
        47.800
 126113407.575 6  98270209.528 6  94175617.555 7  23998585.648
  23998592.508    23998592.145    23998590.406          40.400          41.300
        43.900
 120527916.801 7  93917855.567 7  90004613.435 7  22935694.656
  22935701.109    22935701.563    22935696.164          44.700          45.300
        46.900
 128074873.246 6  99798623.56043                  24371842.984
                  24371847.453                          39.100          20.900

 112202170.699 7  87430302.87146                  21351353.078
                  21351356.043                          47.100          38.300

 130240416.678 6 101486048.67643                  24783921.711
                  24783926.531                          36.900          18.300

 117697791.136 7  91712598.68345                  22397145.289
                  22397150.770                          46.600          33.100

 119010985.137 7  92735888.94645                  22647043.711
                  22647044.918                          46.800          35.800

 122002456.695 7  95066854.104 6  91105740.234 7  23216284.820
  23216291.699    23216290.742    23216289.285          42.800          41.500
        46.000
 118695849.599 7  92490302.289 7  88636541.501 7  22587065.102
  22587072.195    22587072.449    22587068.813          42.700          44.900
        47.300
 105724071.880 8  82382411.636 8                  20118606.266
  20118608.938    20118608.895                          50.200          50.600

 115601110.020 7  90078797.289 8  86325516.383 8  21998150.195
  21998156.348    21998156.137    21998151.723          47.500          48.100
        48.500
 122435775.073 7  95227836.500 6                  22904137.164    22904137.219
  22904140.930    22904140.840                          44.300          40.300

 106090725.062 7                                  19881351.477    19881349.965
                                                        44.100

 114768185.396 7  89264152.746 7                  21439654.539    21439654.281
  21439657.844    21439657.598                          47.900          46.400

 106811532.033 8  83075650.680 8                  20002357.500    20002357.016
  20002359.207    20002359.125                          49.500          50.000

 107421823.639 7  83550323.018 7                  20109578.797    20109578.316
  20109579.066    20109580.648                          45.200          44.900

 126401895.804 6  98312584.009 6                  23679335.203    23679334.191
  23679337.434    23679337.609                          41.500          39.900

 19 10  7  0  7 35.0000000  0 18G01G03G10G11G14G16G18G22G25G26G31G32
                                R05R06R07R09R16R22
 119209729.953 7  92890698.136 7  89020252.151 8  22684854.211
  22684860.699    22684861.105    22684856.984          45.500          44.300
        48.200
 126096816.063 6  98257281.085 6  94163227.785 7  23995429.484
  23995435.199    23995435.035    23995433.281          41.300          41.300
        44.000
 120543077.133 7  93929668.820 7  90015934.474 7  22938579.820
  22938586.020    22938586.305    22938581.051          45.000          45.100
        47.300
 128083021.250 6  99804972.64143                  24373393.953
                  24373398.047                          40.100          21.500

 112204531.947 7  87432142.80646                  21351802.547
                  21351805.582                          47.300          38.600

 130222267.818 6 101471906.77142                  24780468.609
                  24780472.762                          37.600          17.400

 117707297.383 7  91720006.14045                  22398954.117
                  22398959.727                          46.200          33.600

 118997737.786 7  92725566.34245                  22644522.852
                  22644524.078                          46.700          35.700

 122009390.537 7  95072257.123 6  91110918.103 7  23217604.836
  23217611.363    23217610.371    23217608.746          44.000          41.200
        46.300
 118680483.008 7  92478328.327 7  88625066.449 7  22584140.672
  22584148.168    22584148.441    22584144.711          42.500          45.000
        47.800
 105728594.724 8  82385935.921 8                  20119466.875
  20119469.652    20119469.488                          51.000          50.500

 115608020.519 7  90084182.096 7  86330676.818 8  21999465.398
  21999471.699    21999471.102    21999466.867          47.800          47.900
        48.700
 122447696.090 7  95237108.411 6                  22906367.797    22906367.426
  22906371.348    22906371.004                          45.000          40.800

 106089435.300 7                                  19881109.672    19881108.301
                                                        44.600

 114754980.561 8  89253882.305 7                  21437187.656    21437187.531
  21437192.055    21437190.957                          48.200          46.500

 106798336.134 8  83065387.214 8                  19999886.406    19999885.938
  19999888.344    19999887.883                          49.800          49.700

 107432962.316 7  83558986.433 7                  20111664.313    20111663.578
  20111664.762    20111665.633                          44.900          44.300

 126412144.292 7  98320555.033 6                  23681255.539    23681253.645
  23681258.809    23681258.086                          42.000          40.200

 19 10  7  0  7 40.0000000  0 18G01G03G10G11G14G16G18G22G25G26G31G32
                                R05R06R07R09R16R22
 119211458.554 7  92892045.106 7  89021542.983 7  22685183.086
  22685189.688    22685190.055    22685185.953          44.500          44.300
        47.600
 126080226.538 6  98244354.197 6  94150839.528 7  23992271.539
  23992278.219    23992278.102    23992276.023          40.600          41.500
        44.400
 120558245.478 7  93941488.323 7  90027261.491 7  22941466.070
  22941472.574    22941472.895    22941467.590          44.900          45.500
        46.500
 128091177.115 6  99811327.83443                  24374945.039
                  24374950.199                          40.000          20.900

 112206895.710 7  87433984.69646                  21352252.508
                  21352255.207                          47.100          39.400

 130204115.551 6 101457762.13143                  24777014.344
                  24777017.879                          38.400          18.300

 117716815.085 7  91727422.53245                  22400765.367
                  22400771.027                          45.800          34.000

 118984496.796 7  92715248.69546                  22642002.945
                  22642004.344                          47.800          36.000

 122016339.807 7  95077672.121 7  91116107.496 7  23218926.359
  23218933.844    23218932.789    23218931.258          43.000          42.100
        45.800
 118665121.821 7  92466358.587 7  88613595.453 7  22581217.586
  22581225.340    22581225.543    22581221.543          43.000          45.100
        47.500
 105733130.882 8  82389470.595 8                  20120330.211
  20120332.813    20120332.688                          50.500          50.800

 115614933.929 8  90089569.168 7  86335839.446 8  22000780.906
  22000786.895    22000786.773    22000782.461          48.000          47.600
        49.100
 122459625.029 7  95246386.480 6                  22908598.648    22908599.023
  22908603.035    22908602.527                          45.200          41.200

 106088155.267 7                                  19880870.508    19880868.277
                                                        44.800

 114741776.926 8  89243612.819 7                  21434721.125    21434720.922
  21434725.531    21434724.633                          48.200          46.800

 106785157.285 8  83055136.995 8                  19997418.969    19997418.016
  19997419.668    19997420.008                          49.100          50.200

 107444119.026 7  83567663.877 7                  20113752.469    20113751.992
  20113753.090    20113754.301                          45.700          45.000

 126422404.818 7  98328535.393 6                  23683177.578    23683176.297
  23683181.316    23683181.188                          42.100          41.400

 19 10  7  0  7 45.0000000  0 18G01G03G10G11G14G16G18G22G25G26G31G32
                                R05R06R07R09R16R22
 119213202.140 7  92893403.750 7  89022845.025 8  22685514.891
  22685521.566    22685521.574    22685517.664          43.800          44.300
        48.000
 126063638.909 6  98231428.778 6  94138452.675 7  23989115.422
  23989121.328    23989121.676    23989119.535          41.300          41.900
        43.900
 120573421.766 7  93953313.999 7  90038594.427 7  22944353.930
  22944360.223    22944360.723    22944355.582          44.200          44.600
        47.200
 128099340.854 6  99817689.19343                  24376499.102
                  24376504.105                          39.500          21.100

 112209261.887 7  87435828.47246                  21352702.563
                  21352705.563                          46.700          38.900

 130185959.637 6 101443614.67642                  24773558.750
                  24773562.477                          38.100          16.900

 117726344.152 7  91734847.77945                  22402578.945
                  22402584.488                          45.100          33.200

 118971262.076 8  92704935.93145                  22639484.430
                  22639485.797                          48.000          35.700

 122023304.445 7  95083099.098 7  91121308.357 7  23220252.281
  23220258.953    23220258.566    23220256.734          43.000          42.200
        45.700
 118649766.009 7  92454393.024 7  88602128.450 8  22578295.367
  22578302.629    22578303.367    22578299.449          43.400          44.800
        48.100
 105737680.328 8  82393015.602 8                  20121196.234
  20121198.410    20121198.539                          49.800          50.700

 115621850.194 7  90094958.480 7  86341004.198 8  22002097.195
  22002102.852    22002102.855    22002098.793          47.500          47.400
        48.800
 122471561.870 7  95255670.687 6                  22910832.109    22910832.305
  22910835.676    22910835.676                          45.900          41.500

 106086884.988 7                                  19880631.570    19880630.000
                                                        44.500

 114728574.408 8  89233344.198 7                  21432255.453    21432254.543
  21432258.211    21432258.129                          48.400          46.600

 106771995.598 8  83044900.137 8                  19994954.266    19994953.223
  19994955.129    19994955.180                          49.300          50.200

 107455293.979 7  83576355.496 7                  20115844.570    20115843.934
  20115844.965    20115846.277                          45.100          44.500

 126432677.221 7  98336525.069 6                  23685101.922    23685101.113
  23685105.227    23685105.910                          42.700          41.700

 19 10  7  0  7 50.0000000  0 18G01G03G10G11G14G16G18G22G25G26G31G32
                                R05R06R07R09R16R22
 119214960.858 7  92894774.168 7  89024158.349 8  22685849.516
  22685855.840    22685856.152    22685852.316          43.400          43.900
        48.100
 126047053.329 6  98218504.970 6  94126067.341 7  23985958.852
  23985965.840    23985965.574    23985963.375          40.100          41.400
        44.300
 120588606.078 7  93965145.927 7  90049933.368 7  22947243.648
  22947249.559    22947250.172    22947245.148          44.100          44.700
        46.800
 128107512.464 6  99824056.63443                  24378054.039
                  24378059.137                          39.800          20.900

 112211630.617 7  87437674.22546                  21353153.180
                  21353156.500                          46.100          38.900

 130167800.352 6 101429464.64443                  24770103.695
                  24770106.758                          38.000          18.300

 117735884.622 7  91742281.90045                  22404394.156
                  22404399.934                          45.100          33.800

 118958033.803 7  92694628.18045                  22636967.328
                  22636968.410                          47.700          35.800

 122030284.521 7  95088538.148 7  91126520.755 7  23221580.625
  23221587.340    23221586.781    23221584.832          43.700          42.400
        46.200
 118634415.703 7  92442431.729 7  88590665.549 7  22575374.203
  22575381.813    22575382.250    22575378.527          42.900          44.800
        47.800
 105742243.132 8  82396571.028 8                  20122064.266
  20122066.645    20122066.617                          50.800          50.300

 115628769.463 7  90100350.099 7  86346171.158 8  22003413.641
  22003419.984    22003419.453    22003415.445          46.700          47.300
        49.100
 122483506.668 7  95264961.087 6                  22913066.859    22913066.828
  22913069.777    22913070.148                          46.300          41.300

 106085624.784 7                                  19880395.117    19880393.742
                                                        43.800

 114715373.144 8  89223076.568 7                  21429789.102    21429788.434
  21429792.844    21429792.133                          48.100          46.300

 106758850.983 8  83034676.551 8                  19992492.016    19992491.703
  19992493.469    19992493.563                          48.900          50.300

 107466486.987 7  83585061.162 7                  20117940.211    20117939.492
  20117940.617    20117941.688                          45.100          45.000

 126442961.716 6  98344524.096 7                  23687027.828    23687026.930
  23687032.633    23687033.051                          41.800          42.800

 19 10  7  0  7 55.0000000  0 18G01G03G10G11G14G16G18G22G25G26G31G32
                                R05R06R07R09R16R22
 119216734.696 7  92896156.381 7  89025482.975 7  22686186.719
  22686193.684    22686193.633    22686190.066          43.000          43.700
        47.500
 126030469.780 6  98205582.720 6  94113683.526 7  23982803.570
  23982809.809    23982809.395    23982807.656          41.200          41.700
        44.000
 120603798.393 7  93976984.088 7  90061278.298 7  22950134.602
  22950141.055    22950141.004    22950136.230          42.900          44.900
        46.800
 128115692.024 6  99830430.34643                  24379610.320
                  24379615.703                          40.400          21.500

 112214001.871 7  87439521.95746                  21353604.398
                  21353607.645                          45.800          38.300

 130149637.569 6 101415311.85143                  24766647.094
                  24766650.641                          38.100          19.000

 117745436.541 7  91749724.95745                  22406212.055
                  22406217.293                          45.600          34.100

 118944811.917 7  92684325.41646                  22634451.641
                  22634452.398                          47.900          36.000

 122037280.053 7  95093989.205 7  91131744.693 7  23222911.336
  23222918.855    23222918.066    23222915.969          43.200          42.300
        45.800
 118619070.843 7  92430474.715 7  88579206.754 7  22572454.625
  22572461.898    22572461.922    22572458.594          43.100          45.000
        47.800
 105746819.240 8  82400136.843 8                  20122935.070
  20122937.805    20122937.527                          49.600          50.600

 115635691.663 7  90105744.022 8  86351340.335 8  22004731.195
  22004737.191    22004736.719    22004732.922          47.500          48.100
        49.000
 122495459.456 7  95274257.709 6                  22915302.508    22915302.719
  22915305.734    22915306.289                          45.900          40.800

 106084374.582 7                                  19880161.477    19880159.555
                                                        43.800

 114702173.159 8  89212809.908 7                  21427322.859    21427322.711
  21427326.406    21427326.289                          48.000          46.500

 106745723.529 8  83024466.301 8                  19990033.867    19990033.215
  19990035.406    19990035.336                          49.300          50.200

 107477698.184 7  83593780.981 7                  20120038.695    20120038.055
  20120039.117    20120040.465                          44.900          44.900

 126453258.130 6  98352532.374 6                  23688956.477    23688954.984
  23688961.520    23688962.715                          41.400          41.600

 19 10  7  0  8  0.0000000  0 18G01G03G10G11G14G16G18G22G25G26G31G32
                                R05R06R07R09R16R22
 119218523.615 7  92897550.341 7  89026818.846 8  22686527.570
  22686533.934    22686534.156    22686530.500          43.200          44.300
        48.000
 126013888.292 6  98192662.085 7  94101301.250 7  23979648.133
  23979654.645    23979654.148    23979652.246          40.200          42.500
        43.700
 120618998.708 7  93988828.496 7  90072629.174 7  22953027.242
  22953033.395    22953033.723    22953028.727          43.800          45.100
        46.500
 128123879.433 6  99836810.11743                  24381168.664
                  24381173.879                          40.700          21.100

 112216375.652 7  87441371.66046                  21354056.094
                  21354059.496                          46.300          39.200

 130131471.348 6 101401156.42143                  24763190.422
                  24763194.023                          37.200          19.900

 117754999.834 7  91757176.87045                  22408031.727
                  22408037.277                          45.300          34.200

 118931596.442 7  92674027.64545                  22631936.453
                  22631937.895                          47.500          35.700

 122044291.037 7  95099452.277 7  91136980.146 7  23224246.039
  23224252.566    23224252.414    23224250.008          43.200          42.600
        46.300
 118603731.509 7  92418521.990 7  88567752.056 8  22569535.695
  22569542.945    22569543.328    22569539.484          43.400          45.200
        48.000
 105751408.663 8  82403713.014 8                  20123808.203
  20123810.918    20123810.840                          49.800          50.600

 115642616.796 7  90111140.235 7  86356511.711 8  22006048.766
  22006054.945    22006054.699    22006050.727          47.400          47.900
        48.000
 122507420.240 7  95283560.537 6                  22917540.266    22917540.746
  22917544.457    22917543.703                          46.400          41.700

 106083134.143 7                                  19879928.125    19879927.152
                                                        44.100

 114688974.441 8  89202544.243 7                  21424857.773    21424857.309
  21424860.707    21424860.496                          48.400          45.900

 106732613.340 8  83014269.483 8                  19987578.727    19987578.336
  19987579.957    19987580.094                          49.000          49.800

 107488927.556 7  83602514.948 7                  20122141.977    20122140.508
  20122140.879    20122142.668                          44.800          44.600

 126463566.557 6  98360549.987 7                  23690888.289    23690886.047
  23690893.250    23690893.660                          40.900          42.200

 19 10  7  0  8  5.0000000  0 18G01G03G10G11G14G16G18G22G25G26G31G32
                                R05R06R07R09R16R22
 119220327.647 7  92898956.076 7  89028166.001 7  22686871.102
  22686877.492    22686877.480    22686873.645          43.700          44.100
        47.800
 125997308.849 6  98179743.042 6  94088920.509 7  23976493.117
  23976499.305    23976499.590    23976497.406          40.500          41.300
        44.400
 120634207.038 7  94000679.153 7  90083986.046 7  22955921.195
  22955927.211    22955927.641    22955922.680          43.300          45.500
        47.200
 128132074.706 6  99843196.04643                  24382728.586
                  24382733.184                          40.800          20.400

 112218751.975 7  87443223.32946                  21354508.320
                  21354511.629                          46.600          38.900

 130113301.762 6 101386998.34443                  24759732.867
                  24759736.656                          38.400          19.600

 117764574.553 7  91764637.68445                  22409853.602
                  22409859.199                          45.300          34.200

 118918387.431 7  92663734.91545                  22629423.008
                  22629424.031                          47.900          35.500

 122051317.440 7  95104927.392 7  91142227.147 7  23225582.984
  23225589.395    23225589.547    23225587.168          43.900          42.300
        46.300
 118588397.727 7  92406573.587 7  88556301.501 8  22566616.844
  22566624.625    22566625.055    22566621.512          43.400          44.800
        48.000
 105756011.434 8  82407299.583 8                  20124684.188
  20124686.926    20124686.703                          49.400          50.700

 115649544.914 8  90116538.770 7  86361685.307 8  22007367.172
  22007373.008    22007372.930    22007369.156          48.200          47.600
        48.300
 122519388.984 7  95292869.559 7                  22919778.992    22919778.918
  22919784.078    22919782.777                          46.400          42.600

 106081903.865 7                                  19879697.875    19879696.738
                                                        43.900

 114675777.039 8  89192279.607 7                  21422392.117    21422391.957
  21422395.215    21422395.344                          48.300          45.900

 106719520.375 8  83004086.077 8                  19985126.781    19985126.176
  19985128.324    19985128.309                          49.600          49.700

 107500175.044 7  83611262.984 7                  20124246.844    20124246.012
  20124246.848    20124248.066                          45.000          44.800

 126473886.789 6  98368576.820 6                  23692821.617    23692819.613
  23692825.348    23692826.375                          40.900          40.100

 19 10  7  0  8 10.0000000  0 18G01G03G10G11G14G16G18G22G25G26G31G32
                                R05R06R07R09R16R22
 119222146.829 7  92900373.651 7  89029524.509 8  22687216.922
  22687223.363    22687223.293    22687219.949          44.100          44.100
        48.300
 125980731.562 6  98166825.690 6  94076541.369 7  23973339.086
  23973345.141    23973344.816    23973342.652          40.400          41.700
        44.100
 120649423.427 7  94012536.067 7  90095348.931 7  22958816.531
  22958822.344    22958823.250    22958818.555          43.100          45.100
        46.900
 128140277.910 6  99849588.14743                  24384289.438
                  24384294.137                          40.800          20.400

 112221130.885 7  87445077.02546                  21354960.844
                  21354964.434                          46.600          38.700

 130095128.803 6 101372837.60943                  24756273.852
                  24756278.234                          37.400          18.600

 117774160.716 7  91772107.41245                  22411677.875
                  22411683.340                          45.700          33.900

 118905185.049 8  92653447.34245                  22626910.266
                  22626912.047                          48.000          35.900

 122058359.378 7  95110414.629 7  91147485.724 7  23226922.953
  23226929.594    23226929.672    23226927.086          43.200          42.200
        46.400
 118573069.544 7  92394629.538 7  88544855.144 8  22563700.727
  22563707.809    22563708.445    22563704.504          44.200          45.000
        48.300
 105760627.595 8  82410896.581 8                  20125562.453
  20125565.445    20125565.023                          49.400          50.000

 115656476.085 8  90121939.679 7  86366861.183 8  22008686.164
  22008692.441    22008691.949    22008688.063          48.500          47.700
        48.800
 122531365.878 7  95302184.937 7                  22922020.344    22922019.809
  22922023.484    22922023.277                          45.900          42.100

 106080683.548 7                                  19879470.383    19879468.391
                                                        44.100

 114662581.011 8  89182016.031 7                  21419926.656    21419926.422
  21419930.977    21419930.246                          48.600          47.100

 106706444.658 8  82993916.078 8                  19982678.063    19982677.594
  19982679.523    19982679.676                          49.000          50.000

 107511440.750 7  83620025.208 7                  20126355.977    20126354.832
  20126356.285    20126357.082                          44.900          44.700

 126484219.049 6  98376613.043 6                  23694756.063    23694755.164
  23694759.652    23694760.949                          40.800          38.700

 19 10  7  0  8 15.0000000  0 18G01G03G10G11G14G16G18G22G25G26G31G32
                                R05R06R07R09R16R22
 119223981.148 7  92901802.968 7  89030894.287 8  22687566.359
  22687572.332    22687572.668    22687569.031          44.500          44.100
        48.000
 125964156.375 6  98153909.972 6  94064163.809 7  23970183.758
  23970190.395    23970190.492    23970188.484          41.000          41.400
        43.800
 120664647.822 7  94024399.247 7  90106717.796 7  22961713.992
  22961720.285    22961720.543    22961715.984          43.200          44.900
        47.300
 128148488.976 6  99855986.36143                  24385852.000
                  24385856.852                          41.100          19.600

 112223512.331 7  87446932.69446                  21355414.430
                  21355417.395                          46.600          38.800

 130076952.513 6 101358674.33543                  24752815.555
                  24752819.305                          37.000          18.300

 117783758.327 7  91779586.07245                  22413504.266
                  22413509.719                          45.400          33.600

 118891989.111 7  92643164.79846                  22624399.203
                  22624400.867                          47.600          36.300

 122065416.740 7  95115913.882 7  91152755.848 7  23228265.492
  23228272.914    23228272.875    23228270.082          43.700          42.500
        45.800
 118557746.936 7  92382689.857 7  88533412.929 8  22560785.047
  22560792.082    22560792.680    22560788.676          44.200          45.800
        48.300
 105765257.064 8  82414503.957 8                  20126443.664
  20126446.395    20126445.957                          49.400          50.200

 115663410.233 8  90127342.913 8  86372039.289 8  22010005.531
  22010011.910    22010011.484    22010007.625          48.900          48.000
        48.800
 122543350.728 7  95311506.482 7                  22924261.961    22924261.746
  22924266.254    22924265.465                          45.900          42.400

 106079473.247 7                                  19879243.453    19879241.320
                                                        44.400

 114649386.331 8  89171753.509 7                  21417462.289    21417461.914
  21417465.582    21417465.254                          48.600          46.400

 106693386.235 8  82983759.519 8                  19980232.547    19980232.066
  19980234.121    19980234.250                          49.700          49.600

 107522724.493 7  83628801.460 7                  20128468.195    20128467.223
  20128468.219    20128469.645                          45.100          45.100

 126494563.337 6  98384658.614 6                  23696694.563    23696692.734
  23696697.586    23696698.227                          40.300          38.500

 19 10  7  0  8 20.0000000  0 18G01G03G10G11G14G16G18G22G25G26G31G32
                                R05R06R07R09R16R22
 119225830.323 7  92903243.874 7  89032275.157 7  22687917.547
  22687924.680    22687924.637    22687920.813          44.300          43.600
        47.900
 125947583.015 6  98140995.671 6  94051787.624 7  23967030.672
  23967036.918    23967036.754    23967034.613          40.300          41.200
        44.300
 120679879.977 7  94036268.440 7  90118092.451 7  22964612.797
  22964618.660    22964619.156    22964614.359          42.900          45.500
        47.300
 128156707.647 6  99862390.50343                  24387415.797
                  24387420.656                          41.100          19.300

 112225896.094 7  87448790.17246                  21355867.672
                  21355871.047                          47.600          38.800

 130058772.660 6 101344508.24842                  24749356.531
                  24749359.945                          37.300          17.400

 117793366.988 7  91787073.32345                  22415333.227
                  22415338.223                          46.200          33.500

 118878799.406 7  92632887.11046                  22621889.570
                  22621890.871                          47.200          36.200

 122072489.278 7  95121424.944 7  91158037.306 7  23229611.961
  23229618.832    23229618.617    23229615.770          44.400          43.400
        45.800
 118542429.661 7  92370754.339 7  88521974.734 7  22557870.031
  22557877.160    22557877.695    22557873.898          43.400          45.000
        47.800
 105769899.549 8  82418121.482 8                  20127326.883
  20127329.809    20127329.469                          49.500          50.600

 115670347.115 8  90132748.281 7  86377219.426 8  22011325.164
  22011331.590    22011331.555    22011327.617          48.100          47.600
        49.500
 122555343.347 7  95320834.080 7                  22926505.227    22926504.965
  22926508.641    22926509.008                          45.600          42.700

 106078272.557 7                                  19879017.930    19879016.063
                                                        44.200

 114636192.745 8  89161491.838 7                  21414997.094    21414997.141
  21415001.047    21415000.504                          48.300          46.400

 106680344.792 8  82973616.184 8                  19977790.633    19977789.926
  19977792.039    19977792.117                          49.300          50.000

 107534026.170 7  83637591.658 7                  20130583.641    20130582.789
  20130583.336    20130585.102                          45.100          44.200

 126504919.088 6  98392713.091 6                  23698635.273    23698633.070
  23698636.773    23698637.570                          40.600          38.700

 19 10  7  0  8 25.0000000  0 18G01G03G10G11G14G16G18G22G25G26G31G32
                                R05R06R07R09R16R22
 119227694.846 7  92904696.754 7  89033667.490 7  22688272.352
  22688279.227    22688279.395    22688275.613          43.000          43.600
        47.900
 125931012.065 6  98128083.238 6  94039413.213 7  23963877.063
  23963883.586    23963883.246    23963881.191          40.600          41.600
        44.400
 120695120.340 7  94048144.065 7  90129473.243 8  22967512.500
  22967518.789    22967519.270    22967514.496          43.200          45.200
        48.000
 128164934.436 6  99868801.02243                  24388981.273
                  24388985.984                          40.900          19.600

 112228282.631 7  87450649.80546                  21356322.313
                  21356325.332                          47.000          38.600

 130040589.629 6 101330339.64642                  24745896.617
                  24745899.758                          37.600          17.800

 117802987.259 7  91794569.64445                  22417163.352
                  22417168.668                          45.400          34.300

 118865616.483 7  92622614.70445                  22619380.977
                  22619382.152                          47.900          35.500

 122079577.548 7  95126948.266 7  91163330.480 7  23230960.430
  23230967.430    23230967.711    23230964.691          43.500          42.500
        45.600
 118527118.258 7  92358823.365 7  88510540.890 8  22554956.391
  22554963.496    22554964.156    22554960.180          43.700          45.000
        48.200
 105774555.567 8  82421749.551 8                  20128212.984
  20128215.629    20128215.480                          50.200          50.200

 115677287.232 8  90138156.151 8  86382401.982 8  22012646.266
  22012652.543    22012652.340    22012648.328          48.400          48.000
        49.000
 122567344.199 7  95330168.088 7                  22928749.805    22928750.105
  22928753.488    22928754.078                          45.200          42.500

 106077082.355 7                                  19878795.063    19878793.020
                                                        44.100

 114623000.657 8  89151231.304 7                  21412532.961    21412532.668
  21412536.746    21412536.215                          48.300          46.700

 106667320.863 8  82963486.456 8                  19975351.117    19975350.859
  19975352.883    19975353.105                          49.900          50.100

 107545346.191 7  83646396.107 7                  20132702.781    20132701.633
  20132703.012    20132704.375                          45.300          45.000

 126515287.147 6  98400777.115 6                  23700577.227    23700575.469
  23700579.445    23700579.930                          41.200          38.400

 19 10  7  0  8 30.0000000  0 18G01G03G10G11G14G16G18G22G25G26G31G32
                                R05R06R07R09R16R22
 119229574.019 7  92906161.045 7  89035070.770 7  22688630.172
  22688637.137    22688636.918    22688633.195          42.900          43.900
        47.900
 125914442.775 6  98115172.132 7  94027040.050 7  23960724.453
  23960730.680    23960730.336    23960728.184          39.600          42.500
        44.400
 120710368.286 7  94060025.576 7  90140859.700 7  22970413.875
  22970420.750    22970420.754    22970416.191          43.600          45.300
        47.600
 128173168.641 6  99875217.28843                  24390547.711
                  24390552.551                          40.500          19.900

 112230671.261 7  87452511.07546                  21356776.922
                  21356779.965                          46.400          38.900

 130022402.896 6 101316168.20443                  24742435.055
                  24742438.570                          38.800          18.300

 117812618.519 7  91802074.51245                  22418995.859
                  22419001.426                          45.600          34.000

 118852439.624 7  92612347.02245                  22616873.180
                  22616874.391                          47.000          35.500

 122086680.785 7  95132483.257 7  91168634.846 7  23232312.977
  23232319.113    23232319.352    23232316.246          43.500          43.400
        45.800
 118511812.015 7  92346896.439 7  88499110.911 7  22552043.750
  22552050.789    22552051.129    22552047.500          43.900          44.600
        47.700
 105779224.494 8  82425387.673 8                  20129101.461
  20129104.219    20129103.895                          50.000          50.300

 115684229.916 7  90143566.032 8  86387586.445 8  22013967.219
  22013973.539    22013973.402    22013969.488          47.600          48.000
        48.900
 122579352.740 7  95339508.073 7                  22930996.422    22930996.598
  22931001.023    22931000.609                          45.400          42.700

 106075901.791 7                                  19878573.641    19878571.660
                                                        44.700

 114609809.646 8  89140971.661 7                  21410069.063    21410068.563
  21410072.582    21410072.031                          48.400          46.600

 106654313.822 8  82953369.882 8                  19972915.633    19972915.426
  19972917.191    19972917.211                          49.800          50.300

 107556683.791 7  83655214.243 7                  20134825.586    20134824.773
  20134825.363    20134826.785                          45.100          45.200

 126525666.603 6  98408850.065 6                  23702521.508    23702519.516
  23702524.383    23702524.305                          41.200          38.600

